     2.11           OBSERVATION DATA    M (MIXED)           RINEX VERSION / TYPE
HEADER CHANGED BY EPN CB ON 2021-12-28                      COMMENT
TO BE CONFORM WITH THE INFORMATION IN                       COMMENT
ftp://epncb.oma.be/pub/station/log/ajac.log                 COMMENT
                                                            COMMENT
teqc  2019Feb25     IGN-RGP             20211222 00:07:07UTCPGM / RUN BY / DATE
Linux 2.6.32-573.12.1.x86_64|x86_64|gcc|Linux 64|=+         COMMENT
Converto v3.5.6     IGN                 20211222 000702 UTC COMMENT
teqc  2019Feb25     Administrateur RGP  20211221 01:04:05UTCCOMMENT
teqc  2019Feb25     IGN-RGP             20211221 01:04:03UTCCOMMENT
teqc  2019Feb25     IGN-RGP             20211221 01:04:02UTCCOMMENT
BIT 2 OF LLI FLAGS DATA COLLECTED UNDER A/S CONDITION       COMMENT
AJAC                                                        MARKER NAME
10077M005                                                   MARKER NUMBER
Automatic           IGN                                     OBSERVER / AGENCY
2090088             LEICA GR50          4.51                REC # / TYPE / VERS
6122223841          TRM115000.00    NONE                    ANT # / TYPE
  4696989.6880   723994.1970  4239678.3040                  APPROX POSITION XYZ
        0.0000        0.0000        0.0000                  ANTENNA: DELTA H/E/N
     1     1                                                WAVELENGTH FACT L1/2
    22    L1    L2    C1    C2    P1    P2    D1    D2    S1# / TYPES OF OBSERV
          S2    L5    C5    D5    S5    L7    C7    D7    S7# / TYPES OF OBSERV
          L8    C8    D8    S8                              # / TYPES OF OBSERV
    30.0000                                                 INTERVAL
DefaultJobName                                              COMMENT
DefaultUserDiscription                                      COMMENT
Project creator:                                            COMMENT
 SNR is mapped to RINEX snr flag value [0-9]                COMMENT
  L1 & L2: min(max(int(snr_dBHz/6), 0), 9)                  COMMENT
    18                                                      LEAP SECONDS
Forced Modulo Decimation to 30 seconds                      COMMENT
  2021    12    21     0     0    0.0000000     GPS         TIME OF FIRST OBS
                                                            END OF HEADER
 21 12 21  0  0  0.0000000  0 26G07G08G10G16G18G21G23G26G32R04R05R10
                                R12R19R20R21E04E11E12E19E24E25E31E33
                                S23S36
 131857102.133 6 102745756.54245  25091572.300
  25091565.600        -411.138        -320.373          37.350          35.300



 114374313.914 8  89122819.83947  21764705.880
  21764701.780        2312.498        1801.947          50.150          46.300
  85409382.159 8  21764701.960        1726.841          52.650


 110158976.908 8  85838153.10248  20962551.380
  20962547.000         410.954         320.225          53.950          53.850
  82261561.655 9  20962546.260         306.976          54.950


 112191307.034 8  87421772.49147  21349295.460
  21349288.380       -2230.522       -1738.069          51.400          46.850



 126212721.076 7  98347599.11046  24017468.300
  24017462.340       -3054.209       -2379.903          43.650          41.600
  94249805.543 7  24017468.020       -2280.603          47.200


 121982069.575 7  95050935.89046  23212414.440
  23212407.380        2286.453        1781.652          45.300          41.950



 114748710.661 8  89414573.97447  21835945.780
  21835939.420       -1881.978       -1466.476          49.150          46.250
  85688981.647 8  21835944.640       -1405.380          52.100


 123656154.211 7  96355436.09347  23530980.420
  23530977.120       -3555.861       -2770.802          44.150          44.500
  92340630.316 7  23530977.400       -2655.383          46.750


 134055065.113 6 104458480.94746  25509831.680
  25509828.140        2836.327        2210.128          41.600          41.650
 100106048.706 6  25509827.540        2118.232          39.550


 119147697.073 7  92670417.710 7  22249990.480    22249983.480
  22249983.740       -1987.870       -1546.121          47.300          43.900



 111791118.357 8  86948637.065 8  20912840.200    20912835.040
  20912834.920        1741.093        1354.186          50.600          48.300



 118100743.218 7                  22155398.840
                     -3837.262                          46.650



 125288994.929 7  97446978.579 6  23454362.660    23454357.860
  23454357.960        2992.452        2327.463          43.850          39.850



 129511838.195 5 100731412.801 5  24210870.760    24210865.680
  24210864.560       -2917.307       -2269.021          33.200          35.900



 108349078.730 6  84271501.501 8  20261817.180    20261813.760
  20261812.740       -1178.315        -916.468          40.850          49.450



 113210718.757 8  88052723.060 7  21156125.780    21156119.520
  21156108.580        1980.596        1483.972          50.550          47.150



 150111373.216 6                  28565244.280
                      2782.722                          41.550
 112096154.348 6  28565242.700        2078.161          40.500   115020379.099 6
  28565238.840        2132.230          40.800   113558277.190 7  28565240.800
      2105.204          43.550
 122091776.804 8                  23233292.480
                      1381.698                          48.850
  91172418.763 7  23233287.620        1031.745          47.550    93550812.899 8
  23233284.180        1058.620          48.250    92361615.305 8  23233285.820
      1045.178          50.700
 116725676.342 8                  22212158.080
                      -795.834                          49.050
  87165262.313 8  22212153.500        -594.301          50.100    89439123.124 8
  22212150.600        -609.822          51.700    88302194.689 8  22212151.820
      -602.054          53.650
 139452743.474 7                  26536974.200
                      1939.558                          42.600
 104136787.885 6  26536972.220        1448.391          40.000   106853381.917 6
  26536969.000        1486.176          41.000   105495086.875 7  26536970.460
      1467.304          43.500
 131419383.087 8                  25008274.860
                     -2062.297                          52.150
  98137848.730 8  25008272.740       -1540.012          50.950   100697950.518 8
  25008268.940       -1580.201          51.950    99417906.595 9  25008270.620
     -1560.102          54.250
 133165496.647 8                  25340551.060
                       848.869                          50.400
  99441765.540 8  25340550.340         633.888          49.600   102035892.853 8
  25340546.780         650.424          50.650   100738824.168 8  25340548.200
       642.164          52.850
 145046329.913 7                  27601394.760
                     -3209.037                          42.700
 108313833.964 7  27601395.200       -2396.461          44.150   111139398.834 7
  27601391.400       -2458.818          44.700   109726614.871 7  27601393.280
     -2427.636          47.300
 142291069.797 7                  27077081.020
                     -2190.415                          45.950
 106256338.827 7  27077078.800       -1635.710          45.000   109028228.029 7
  27077075.420       -1678.395          46.400   107642282.400 8  27077077.120
     -1657.000          48.550
 200051837.090 7                  38068603.000
                         2.966                          47.900



 197948874.430 8                  37668418.660
                        -1.295                          49.100



 21 12 21  0  0 30.0000000  0 26G07G08G10G16G18G21G23G26G32R04R05R10
                                R12R19R20R21E04E11E12E19E24E25E31E33
                                S23S36
 131869667.223 5                  25093963.200
                      -426.868                          32.950



 114305043.723 8  89068843.08047  21751524.200
  21751520.160        2305.387        1796.405          50.350          45.900
  85357654.439 8  21751520.240        1721.595          52.650


 110146929.087 8  85828765.19648  20960258.720
  20960254.360         391.975         305.436          53.650          53.600
  82252564.931 9  20960253.620         292.689          55.200


 112258456.702 8  87474096.89847  21362073.640
  21362066.640       -2246.289       -1750.355          51.000          47.400



 126304351.162 7  98418999.17546  24034905.100
  24034899.040       -3054.778       -2380.346          43.850          41.350
  94318230.609 7  24034904.820       -2281.190          47.250


 121913579.308 7  94997566.85746  23199381.140
  23199374.180        2279.646        1776.347          44.400          40.650



 114805415.076 8  89458759.23547  21846736.280
  21846730.000       -1898.348       -1479.232          49.450          45.950
  85731325.881 8  21846735.100       -1417.705          52.350


 123762892.090 7  96438608.44847  23551291.900
  23551288.860       -3560.097       -2774.103          44.250          44.050
  92420337.170 7  23551288.800       -2658.411          46.850


 133969914.749 6 104392130.00846  25493628.180
  25493624.740        2839.901        2212.912          40.300          40.000
 100042462.439 6  25493624.020        2120.485          37.400


 119207683.536 7  92717073.850 7  22261192.380    22261185.560
  22261185.940       -2011.414       -1564.434          46.600          43.650



 111739248.286 8  86908293.683 8  20903136.840    20903131.720
  20903131.600        1716.596        1335.131          49.900          48.250



 118216009.716 7                  22177022.500
                     -3847.197                          46.350



 125199482.834 6  97377358.096 6  23437605.760    23437601.140
  23437601.100        2974.584        2313.567          41.950          40.600



 129599362.172 5 100799487.001 6  24227232.240    24227227.420
  24227226.320       -2917.559       -2269.213          33.700          36.100



 108384538.351 6  84299081.204 8  20268448.360    20268444.900
  20268443.840       -1185.796        -922.286          40.350          49.550



 113151387.819 8  88006576.785 7  21145038.320    21145032.140
  21145021.240        1974.606        1479.491          50.650          46.900



 150027835.333 6                  28549347.280
                      2786.097                          41.200
 112033772.214 6  28549346.120        2080.497          40.800   114956369.570 6
  28549342.440        2134.961          41.200   113495081.370 7  28549344.100
      2107.684          43.550
 122050403.513 8                  23225419.360
                      1376.589                          48.600
  91141523.149 7  23225414.520        1027.901          47.800    93519111.290 8
  23225411.100        1054.730          48.200    92330316.695 8  23225412.700
      1041.286          50.400
 116749619.345 8                  22216714.300
                      -800.460                          48.800
  87183141.840 8  22216709.680        -597.764          50.300    89457469.059 8
  22216706.760        -613.365          51.700    88320307.423 8  22216708.040
      -605.576          53.250
 139394687.910 7                  26525926.680
                      1930.418                          42.400
 104093434.721 6  26525924.640        1441.803          40.200   106808897.787 6
  26525921.240        1479.298          40.950   105451168.213 7  26525922.760
      1460.783          43.050
 131481413.691 8                  25020078.880
                     -2073.181                          51.950
  98184170.289 8  25020076.740       -1548.187          51.100   100745480.451 8
  25020073.100       -1588.547          52.000    99464832.347 8  25020074.660
     -1568.395          53.900
 133140237.694 8                  25335744.360
                       834.855                          50.100
  99422903.341 8  25335743.700         623.418          49.600   102016538.588 8
  25335740.300         639.707          50.800   100719715.938 8  25335741.580
       631.525          52.550
 145142607.255 6                  27619715.620
                     -3209.456                          41.950
 108385729.352 7  27619716.080       -2396.771          43.950   111213169.744 7
  27619712.600       -2459.292          44.950   109799448.023 7  27619714.240
     -2428.049          46.850
 142356780.263 7                  27089585.300
                     -2190.427                          45.950
 106305408.320 7  27089583.280       -1635.689          45.200   109078577.583 7
  27089579.900       -1678.449          46.200   107691991.930 7  27089581.360
     -1657.122          47.950
 200051746.696 7                  38068585.920
                         2.882                          47.800



 197948914.912 8                  37668426.040
                        -1.410                          48.950



