     2.10           OBSERVATION DATA    G (GPS)             RINEX VERSION / TYPE
teqc  2002Mar14     Arecibo Observatory 20170102 06:00:02UTCPGM / RUN BY / DATE
Linux 2.0.36|Pentium II|gcc|Linux|486/DX+                   COMMENT
BIT 2 OF LLI FLAGS DATA COLLECTED UNDER A/S CONDITION       COMMENT
aopr                                                        MARKER NAME
-Unknown-                                                   MARKER NUMBER
Arecibo Observatory Arecibo Observatory                     OBSERVER / AGENCY
-Unknown-           ASHTECH UZ-12       CN00                REC # / TYPE / VERS
-Unknown-           -Unknown-                               ANT # / TYPE
  2390232.6900 -5564587.6100  1995022.1400                  APPROX POSITION XYZ
        0.0000        0.0000        0.0000                  ANTENNA: DELTA H/E/N
     1     1                                                WAVELENGTH FACT L1/2
     5    L1    L2    C1    P1    P2                        # / TYPES OF OBSERV
Version: Version:                                           COMMENT
Project: A__________________________404015_                 COMMENT
 SNR is mapped to RINEX snr flag value [0-9]                COMMENT
  L1 & L2: >= 48 dBHz = 9; 0 dBHz = 0; else 1 + dBHz/6      COMMENT
  2017     1     1     0     0    0.0000000     GPS         TIME OF FIRST OBS
                                                            END OF HEADER
 17  1  1  0  0  0.0000000  0 10G31G27G 3G32G16G 8G14G23G22G26
 -14746974.73049 -11440396.20948  22513484.6374   22513484.7724   22513487.3704
 -19651355.72649 -15259372.67949  21319698.6624   21319698.7504   21319703.7964
  -9440000.26548  -7293824.59347  23189944.5874   23189944.9994   23189951.4644
 -11141744.16748  -8631423.58147  23553953.9014   23553953.6364   23553960.7164
 -21846711.60849 -16970657.69649  20528865.5524   20528865.0214   20528868.5944
  -2919082.75648  -2211037.84947  24165234.9594   24165234.7844   24165241.6424
 -20247177.70149 -15753542.44648  21289883.9064   21289883.7434   21289887.2614
 -15110614.77049 -11762797.21948  23262395.0794   23262394.3684   23262395.3424
 -16331314.56648 -12447068.51348  22920988.2144   22920987.5494   22920990.0634
 -15834397.66049 -12290568.98049  21540206.1654   21540206.1564   21540211.9414
 17  1  1  3 33 40.0000000  0  9G30G27G11G16G 8G 7G23G 9G 1
  -4980733.18548  -3805623.87347  24352349.1684   24352347.9244   24352356.1564
  -9710828.79748  -7513506.68548  23211317.1574   23211317.5034   23211324.2834
 -26591640.60049 -20663619.71349  20668830.8234   20668830.4204   20668833.2334
  -2876691.02148  -2188825.98947  24138743.7034   24138743.6094   24138745.3184
 -19659629.49649 -15255613.81549  20979609.7704   20979609.4094   20979615.2514
 -18951526.07649 -14757441.84348  21470398.1684   21470398.1574   21470400.8554
 -18143490.68049 -14126079.68448  22685259.0754   22685258.3664   22685261.2134
 -16594887.53049 -12883140.10148  22336785.6934   22336785.4334   22336790.8924
 -19095445.86249 -14826971.50648  21708306.6584   21708306.5704   21708312.9414
 17  1  1  6  9 10.0000000  0 11G30G17G 3G11G19G 8G 7G 6G22G28G 1
 -23668184.66249 -18367274.15149  20796245.2334   20796244.8234   20796250.6334
  -5877878.73348  -4575160.53248  23410058.5724   23410059.2714   23410062.1064
 -14330784.79049 -11159200.76948  22386555.0924   22386555.5294   22386561.1694
 -18535782.38249 -14386326.63548  22201809.2434   22201808.6284   22201811.8674
  -2818370.49848  -2158733.26747  24199387.4244   24199386.1504   24199389.5674
  -1657187.18348  -1227738.78347  24405361.4394   24405361.8174   24405367.9104
 -20423274.04149 -15904260.09048  21190335.4504   21190335.3064   21190338.4104
  -3369328.09448  -2572763.92047  24203321.5404   24203321.3864   24203325.7804
 -14092358.97049 -10974147.19148  22566359.9814   22566358.6994   22566360.4184
 -15283523.06549 -11885593.19948  22273612.1774   22273611.9344   22273614.5104
 -21848286.72849 -16972039.81549  21184456.3894   21184456.9144   21184462.1224
