     2              OBSERVATION DATA    GPS                 RINEX VERSION / TYPE
HEADER CHANGED BY EPN CB ON 2014-01-24                      COMMENT
TO BE CONFORM WITH THE INFORMATION IN                       COMMENT
ftp://epncb.oma.be/pub/station/log/kosg.log                 COMMENT
                                                            COMMENT
srx v1.5 (11/13/93) BAI                 95/01/02 10:09:47   PGM / RUN BY / DATE
KOSG                                                        MARKER NAME
13504M003                                                   MARKER NUMBER
DANNY VAN LOON      D U T / K O S G                         OBSERVER / AGENCY
R117                ROGUE SNR-8         Meenix 7.8          REC # / TYPE / VERS
119                 AOAD/M_B        DUTD                    ANT # / TYPE
  3899242.6490   396728.6934  5015081.6508                  APPROX POSITION XYZ
        0.1050        0.0000        0.0000                  ANTENNA: DELTA H/E/N
    30                                                      INTERVAL
     1     1     0                                          WAVELENGTH FACT L1/2
     5    L1    L2    P1    P2    C1                        # / TYPES OF OBSERV
SNR is mapped to signal strength [0,1,4-9]                  COMMENT
 SNR:   >500  >100   >50   >10    >5    >0   bad   n/a      COMMENT
 sig:      9     8     7     6     5     4     1     0      COMMENT
  1995    01    01    00    00   00.000000                  TIME OF FIRST OBS
  1995    01    01    23    59   30.000000                  TIME OF LAST OBS
    25                                                      # OF SATELLITES
    01  1077  1077     0  1077  1077                        PRN / # OF OBS
    02  1046  1046     0  1046  1046                        PRN / # OF OBS
    04   784   784     0   784   784                        PRN / # OF OBS
    05   794   794     0   794   794                        PRN / # OF OBS
    06   759   759     0   759   759                        PRN / # OF OBS
    07  1046  1046     0  1046  1046                        PRN / # OF OBS
    09   804   804     0   804   804                        PRN / # OF OBS
    12   926   926   926   926     0                        PRN / # OF OBS
    14   781   781     0   781   781                        PRN / # OF OBS
    15   755   755     0   755   755                        PRN / # OF OBS
    16   974   974     0   974   974                        PRN / # OF OBS
    17   926   926     0   926   926                        PRN / # OF OBS
    18   737   737     0   737   737                        PRN / # OF OBS
    19   599   599     0   599   599                        PRN / # OF OBS
    20   528   528     0   528   528                        PRN / # OF OBS
    21   830   830     0   830   830                        PRN / # OF OBS
    22   898   898     0   898   898                        PRN / # OF OBS
    23   941   941     0   941   941                        PRN / # OF OBS
    24  1060  1060     0  1060  1060                        PRN / # OF OBS
    25  1041  1041     0  1041  1041                        PRN / # OF OBS
    26   890   890     0   890   890                        PRN / # OF OBS
    27   913   913     0   913   913                        PRN / # OF OBS
    28   851   851     0   851   851                        PRN / # OF OBS
    29   743   743     0   743   743                        PRN / # OF OBS
    31   802   802     0   802   802                        PRN / # OF OBS
                                                            END OF HEADER
 95 01 01 00 00 00.0000000  0  7 06 17 21 22 23 28 31
  21700656.31447  16909599.97044          .00041  24479973.67844  24479975.23247
 -21615220.85148 -16843025.89046          .00041  20789585.69346  20789586.92948
  -1087197.58548   -847166.22344          .00041  24771157.51444  24771159.48648
 -19632667.44148 -15298182.99746          .00041  20634043.16046  20634044.06948
  -9446212.62348  -7360683.76845          .00041  22847002.12545  22847002.92648
 -17812036.19148 -13879505.36246          .00041  21590280.41046  21590281.66248
  -3273278.91148  -2550608.67844          .00041  24426592.78344  24426595.55248
 95 01 01 11 00 00.0000000  0  8 04 16 18 19 22 24 27 29
  -5700578.29048  -4442015.51144          .00041  24054332.28344  24054334.97448
 -16752818.68948 -13054141.87246          .00041  21632451.74946  21632453.00348
 -18594858.87748 -14489498.88746          .00041  21660915.94046  21660916.95448
 -12389073.33448  -9653819.33146          .00041  20617896.79546  20617897.95148
   5920462.20247   4613346.33144          .00041  25409206.83744  25409206.71647
 -17212593.29548 -13412413.61345          .00041  22042045.19045  22042044.74548
 -20305048.46048 -15822109.94746          .00041  21363884.27046  21363885.48448
  12072810.86147   9407380.32944          .00041  24767110.31044  24767113.87447
 95 01 01 20 44 30.0000000  0  8 01 05 06 17 20 22 24 25
   1424292.43847   1109836.75944          .00041  24983337.32244  24983347.06147
  -8813506.80948  -6867659.51644          .00041  23409844.58644  23409845.53548
 -24446398.20048 -19049136.19946          .00041  20167298.33746  20167300.14648
  -3058244.60147  -2383046.79044          .00041  24765806.58844  24765810.97547
   -234256.12948   -182536.74446          .00041  20662501.89646  20662503.18748
  -2801107.03747  -2182679.60444          .00041  24388253.81244  24388250.09847
  -4737794.05348  -3691783.85245          .00041  23077756.92045  23077758.19248
 -22465862.93248 -17505865.81246          .00041  20958288.01046  20958290.18548
