     2.11           OBSERVATION DATA    M (MIXED)           RINEX VERSION / TYPE
HEADER CHANGED BY EPN CB ON 2021-12-28                      COMMENT
TO BE CONFORM WITH THE INFORMATION IN                       COMMENT
ftp://epncb.oma.be/pub/station/log/npaz.log                 COMMENT
                                                            COMMENT
GPSNet 2.70 3641                        21-Dec-21 00:59:45  PGM / RUN BY / DATE
gfzrnx-1.13-7761    FILE MERGE          20211222 033032 UTC COMMENT
NPAZ                                                        MARKER NAME
12110M001                                                   MARKER NUMBER
                    Republicki Geodetski Zavod              OBSERVER / AGENCY
5703R51185          TRIMBLE NETR9       Nav 5.37            REC # / TYPE / VERS
1440905738          TRM115000.00    TZGD                    ANT # / TYPE
        0.0000        0.0000        0.0000                  ANTENNA: DELTA H/E/N
  4365991.2580  1634053.0450  4339210.5010                  APPROX POSITION XYZ
     6    C1    L1    L2    P2    S1    S2                  # / TYPES OF OBSERV
Sasa Lazic. GNSS admin nacionalne mreze Republike Srbije    COMMENT
     0                                                      RCV CLOCK OFFS APPL
     1     1     0                                          WAVELENGTH FACT L1/2
    50                                                      # OF SATELLITES
   G01   340   340   332   332   340   332                  PRN / # OF OBS
   G02   574   574   556   556   574   556                  PRN / # OF OBS
   G03   290   290   278   278   290   278                  PRN / # OF OBS
   G04   242   242   240   240   242   240                  PRN / # OF OBS
   G05   606   606   605   605   606   605                  PRN / # OF OBS
   G06   376   376   372   372   376   372                  PRN / # OF OBS
   G07   453   453   453   453   453   453                  PRN / # OF OBS
   G08   681   681   679   679   681   679                  PRN / # OF OBS
   G09   342   342   342   342   342   342                  PRN / # OF OBS
   G10   565   565   551   551   565   551                  PRN / # OF OBS
   G12   543   543   542   542   543   542                  PRN / # OF OBS
   G13   642   642   599   599   642   599                  PRN / # OF OBS
   G14   702   702   692   692   702   692                  PRN / # OF OBS
   G15   673   673   658   658   673   658                  PRN / # OF OBS
   G16   458   458   405   405   458   405                  PRN / # OF OBS
   G17   555   555   545   545   555   545                  PRN / # OF OBS
   G18   400   400   390   390   400   390                  PRN / # OF OBS
   G19   477   477   458   458   477   458                  PRN / # OF OBS
   G20   624   624   583   583   624   583                  PRN / # OF OBS
   G21   462   462   420   420   462   420                  PRN / # OF OBS
   G23   673   673   665   665   673   665                  PRN / # OF OBS
   G24   557   557   542   542   557   542                  PRN / # OF OBS
   G25   360   360   360   360   360   360                  PRN / # OF OBS
   G26   454   454   453   453   454   453                  PRN / # OF OBS
   G29   360   360   360   360   360   360                  PRN / # OF OBS
   G30   581   581   581   581   581   581                  PRN / # OF OBS
   G31   447   447   440   440   447   440                  PRN / # OF OBS
   G32   632   632   619   619   632   619                  PRN / # OF OBS
   R01   225   225   120   120   225   120                  PRN / # OF OBS
   R02   460   460   433   433   460   433                  PRN / # OF OBS
   R03   503   503   421   421   503   421                  PRN / # OF OBS
   R04   688   688   373   373   688   373                  PRN / # OF OBS
   R05   678   678   645   645   678   645                  PRN / # OF OBS
   R06   607   607               607                        PRN / # OF OBS
   R07   437   437   182   182   437   182                  PRN / # OF OBS
   R08   403   403   226   226   403   226                  PRN / # OF OBS
   R09   436   436   407   407   436   407                  PRN / # OF OBS
   R10   418   418               418                        PRN / # OF OBS
   R12   739   739   645   645   739   645                  PRN / # OF OBS
   R13   564   564   457   457   564   457                  PRN / # OF OBS
   R14   493   493   450   450   493   450                  PRN / # OF OBS
   R15   552   552   522   522   552   522                  PRN / # OF OBS
   R17   429   429   241   241   429   241                  PRN / # OF OBS
   R18   438   438   425   425   438   425                  PRN / # OF OBS
   R19   443   443   303   303   443   303                  PRN / # OF OBS
   R20   544   544   516   516   544   516                  PRN / # OF OBS
   R21   572   572   473   473   572   473                  PRN / # OF OBS
   R22   547   547               547                        PRN / # OF OBS
   R23   499   499               499                        PRN / # OF OBS
   R24   333   333   295   295   333   295                  PRN / # OF OBS
    30.000                                                  INTERVAL
  2021    12    21     0     0    0.0000000     GPS         TIME OF FIRST OBS
  2021    12    21    23    59   30.0000000     GPS         TIME OF LAST OBS
                                                            END OF HEADER
 21 12 21 00 00 00.0000000  0 17G08G10G15G16G18G21G23G26G32R04R05R06
                                R10R12R19R20R21
  22288985.512   117129399.04806  91269672.41646  22288987.972          44.000  
        27.000  
  20683381.444   108691921.07007  84695007.69448  20683383.604          51.000  
        47.000  
  24419047.378   128322969.19804  99991930.81746  24419047.458          39.000  
        27.000  
  21735706.216   114221907.77506  89004081.93546  21735705.916          46.000  
        30.000  
  23144121.006   121623214.66206  94771344.59546  23144121.426          43.000  
        23.000  
  24135239.160   126831531.88505  98829771.35842  24135239.520          40.000  
        14.000  
  21233917.920   111585011.35207  86949362.76947  21233918.860          48.000  
        32.000  
  23711016.542   124602232.03105  97092647.80746  23711020.642          41.000  
        30.000  
  25086887.354   131832485.69203 102726611.82046  25086890.374          37.000  
        22.000  
  21615964.936   115752520.41807  90029726.13246  21615960.316          48.000  
        22.000  
  20273187.068   108371811.72107  84289192.12547  20273183.508          50.000  
        35.000  
  23169328.288   123635984.72500                                        32.000  
                
  22884259.628   121985970.86906                                        43.000  
                
  23679514.044   126491706.09205  98382440.60646  23679510.464          42.000  
        26.000  
  23250776.648   124375967.25400                                        32.000  
                
  19893415.108   106379034.79405  82739249.56147  19893413.188          40.000  
        33.000  
  21772650.456   116509861.22706  90618770.57846  21772647.896          46.000  
        22.000  
 21 12 21 00 00 30.0000000  0 17G08G10G15G16G18G21G23G26G32R04R05R06
                                R10R12R19R20R21
  22273618.192   117048642.67706  91206745.37646  22273620.492          45.000  
        27.000  
  20679832.284   108673270.42707  84680474.73748  20679834.464          51.000  
        47.000  
  24428574.718   128373032.12605 100030940.88146  24428574.158          40.000  
        26.000  
  21748622.436   114289784.86106  89056973.16346  21748622.736          46.000  
        30.000  
  23159990.646   121706608.75906  94836327.00246  23159990.946          43.000  
        22.000  
  24121222.480   126757874.84305  98772376.29745  24121222.660          40.000  
        17.000  
  21243754.540   111636702.47207  86989641.56447  21243755.220          48.000  
        33.000  
  23730924.382   124706843.12805  97174162.95546  23730927.462          41.000  
        30.000  
  25068865.594   131737775.26304 102652811.50846  25068867.574          38.000  
        24.000  
  21628749.716   115820985.39407  90082976.65346  21628746.496          48.000  
        22.000  
  20263702.068   108321110.70607  84249758.00647  20263698.768          50.000  
        34.000  
  23144036.268   123501011.94300                                        32.000  

  22905715.968   122100341.64505                                        42.000  
                
  23665462.924   126416648.11306  98324062.16346  23665459.604          43.000  
        25.000  
  23266753.448   124461433.23101                                        33.000  
                
  19895900.968   106392328.16604  82749588.85847  19895899.328          39.000  
        33.000  
  21758080.616   116431896.04406  90558129.99946  21758077.536          47.000  
        22.000  
 21 12 21 00 01 00.0000000  0 17G08G10G15G16G18G21G23G26G32R04R05R06
                                R10R12R19R20R21
  22258291.592   116968101.00506  91143985.65846  22258293.952          45.000  
        28.000  
  20676385.824   108655160.14807  84666362.83248  20676388.284          50.000  
        47.000  
  24438202.398   128423629.67305 100070367.57346  24438202.538          40.000  
        26.000  
  21761627.596   114358125.44606  89110225.56946  21761626.996          46.000  
        30.000  
  23175875.566   121790085.45405  94901373.75146  23175876.106          42.000  
        23.000  
  24107230.500   126684347.19105  98715082.06645  24107230.140          40.000  
        16.000  
  21253682.140   111688871.18507  87030292.51546  21253682.180          48.000  
        31.000  
  23750847.042   124811543.19405  97255747.39946  23750850.902          40.000  
        30.000  
  25050830.074   131642998.12604 102578959.20646  25050832.574          38.000  
        24.000  
  21641662.556   115890135.80307  90136764.30546  21641659.096          48.000  
        23.000  
  20254360.648   108271176.98007  84210920.68647  20254357.548          50.000  
        34.000  
  23118758.488   123366131.03601                                        33.000  
                
  22927212.048   122214931.25906                                        43.000  
                
  23651523.244   126342184.04306  98266145.63346  23651520.104          44.000  
        25.000  
  23282753.248   124547012.93301                                        33.000  

  19898443.908   106405916.95705  82760157.90847  19898440.188          40.000  
        33.000  
  21743531.356   116354039.26806  90497574.77146  21743528.556          47.000  
        22.000  
 21 12 21 00 01 30.0000000  0 17G08G10G15G16G18G21G23G26G32R04R05R06
                                R10R12R19R20R21
  22243005.512   116887774.85606  91081393.84746  22243007.772          45.000  
        28.000  
  20673042.624   108637589.67107  84652671.55948  20673044.744          51.000  
        47.000  
  24447931.978   128474759.72304 100110209.18146  24447932.158          39.000  
        26.000  
  21774719.636   114426926.44906  89163836.69746  21774719.136          44.000  
        29.000  
  23191776.306   121873643.29306  94966483.73046  23191776.426          43.000  
        22.000  
  24093263.180   126610948.44505  98657888.25245  24093263.420          40.000  
        16.000  
  21263699.660   111741514.77506  87071313.48646  21263699.420          47.000  
        31.000  
  23770787.402   124916328.91904  97337398.61546  23770791.162          39.000  
        30.000  
  25032781.174   131548156.33603 102505056.50446  25032784.874          37.000  
        23.000  
  21654702.896   115959967.55107                                        48.000  

  20245163.688   108222012.76107  84172681.86047  20245159.668          49.000  
        33.000  
  23093500.568   123231345.64001                                        33.000  

  22948749.508   122329735.14106                                        43.000  

  23637694.064   126268316.33706  98208692.98146  23637691.984          43.000  
        28.000  
  23298773.508   124632704.86802                                        34.000  
                
  19901040.368   106419800.92205  82770956.55247  19901037.068          41.000  
        34.000  
  21729001.916   116276290.90506  90437108.80846  21728999.756          47.000  
        23.000  
 21 12 21 00 02 00.0000000  0 17G08G10G15G16G18G21G23G26G32R04R05R06
                                R10R12R19R20R21
  22227761.732   116807667.26006  91018972.35146  22227764.492          46.000  
        29.000  
  20669802.184   108620559.53107  84639401.34148  20669803.924          51.000  
        47.000  
  24457762.618   128526421.26405 100150464.92346  24457762.958          40.000  
        27.000  
  21787899.996   114496186.35006  89217805.42546  21787899.176          47.000  
        29.000  
  23207691.366   121957282.15406  95031656.88146  23207692.146          43.000  
        23.000  
  24079319.720   126537679.18505  98600795.32245  24079320.140          40.000  
        16.000  
  21273806.540   111794631.74006  87112703.32746  21273806.720          47.000  
        30.000  
  23790743.262   125021198.19704  97419114.91746  23790747.442          39.000  
        30.000  
  25014723.094   131453253.08803 102431105.94946  25014724.554          37.000  
        24.000  
  21667870.836   116030478.31607                                        48.000  

  20236110.168   108173620.72007  84135043.62247  20236107.168          50.000  
        34.000  
  23068261.588   123096660.23502                                        34.000  
                
  22970326.148   122444748.78506                                        43.000  

  23623978.484   126195048.64305  98151707.00546  23623976.304          41.000  
        26.000  
  23314814.328   124718510.02602                                        34.000  

  19903690.948   106433981.16304  82781985.63247  19903688.668          39.000  
        33.000  
  21714493.216   116198652.54706  90376723.39946  21714490.996          46.000  
        21.000  
 21 12 21 00 02 30.0000000  0 17G08G10G15G16G18G21G23G26G32R04R05R06
                                R10R12R19R20R21
  22212559.572   116727779.30506  90956722.00446  22212562.032          46.000  
        28.000  
  20666663.824   108604069.61307  84626552.05448  20666666.084          51.000  
        47.000  
  24467695.218   128578612.24305 100191133.20846  24467695.118          40.000  
        27.000  
  21801166.716   114565902.45206  89272129.67046  21801165.256          47.000  
        29.000  
  23223622.866   122041000.99605  95096892.32246  23223623.686          42.000  
        22.000  
  24065402.560   126464539.28605  98543803.16545  24065401.800          41.000  
        17.000  
  21284004.480   111848219.78106  87154460.25046  21284004.420          47.000  
        30.000  
  23810714.882   125126148.13604  97500894.07946  23810718.302          39.000  
        29.000  
  24996651.534   131358291.00304 102357109.53546  24996653.654          38.000  
        24.000  
  21681163.956   116101664.63806                                        47.000  
                
  20227202.928   108126003.34707  84098007.90447  20227199.588          51.000  
        35.000  
  23043040.388   122962078.58002                                        34.000  

  22991940.408   122559967.40806                                        43.000  

  23610375.924   126122384.05006  98095190.08446  23610372.444          43.000  
        23.000  
  23330874.808   124804428.05702                                        34.000  

  19906398.728   106448457.38505  82793244.90947  19906395.788          40.000  
        34.000  
  21700005.556   116121124.68806  90316417.97146  21700003.496          47.000  
        23.000  
 21 12 21 00 03 00.0000000  0 17G08G10G15G16G18G21G23G26G32R04R05R06
                                R10R12R19R20R21
  22197399.952   116648113.64006  90894644.87146  22197401.592          46.000  
        28.000  
  20663628.424   108588120.27607  84614124.00148  20663630.804          50.000  
        47.000  
  24477725.738   128631331.02704 100232212.81946  24477726.778          39.000  
        28.000  
  21814519.456   114636072.42807  89326807.56746  21814519.236          48.000  
        29.000  
  23239569.666   122124799.43406  95162189.81046  23239570.666          43.000  
        22.000  
  24051508.980   126391529.44905  98486912.47545  24051508.920          40.000  
        15.000  
  21294291.518   111902277.13506  87196582.87447  21294291.638          47.000  
        32.000  
  23830700.902   125231176.37605  97582734.28246  23830704.782          41.000  
        31.000  
  24978570.294   131263273.05405 102283069.57046  24978572.934          40.000  
        25.000  
  21694583.496   116173523.39706                                        47.000  

  20218440.668   108079163.36407  84061576.81047  20218437.468          51.000  
        35.000  
  23017840.808   122827605.16902                                        34.000  

  23013593.588   122675386.82105                                        42.000  
                
  23596887.164   126050325.65406  98039144.64546  23596883.064          44.000  
        25.000  
  23346955.688   124890459.80502                                        34.000  

  19909160.768   106463230.69004  82804735.27047  19909158.528          39.000  
        33.000  
  21685539.056   116043708.54106  90256206.43246  21685535.116          47.000  
        23.000  
 21 12 21 00 03 30.0000000  0 17G08G10G15G16G18G21G23G26G32R04R05R06
                                R10R12R19R20R21
  22182282.434   116568671.86006  90832742.19146  22182285.294          47.000  
        28.000  
  20660696.264   108572711.12207  84602116.87848  20660698.444          52.000  
        47.000  
  24487858.438   128684576.35704 100273702.67746  24487859.218          39.000  
        27.000  
  21827958.176   114706693.62306  89381837.06346  21827958.096          46.000  
        29.000  
  23255531.046   122208676.36906  95227548.41846  23255531.426          43.000  
        22.000  
  24037640.540   126318649.26704  98430122.73345  24037639.580          39.000  
        17.000  
  21304667.498   111956801.38907  87239069.30546  21304667.478          48.000  
        31.000  
  23850702.082   125336279.83105  97664633.05546  23850705.562          42.000  
        30.000  
  24960479.374   131168201.57705 102208987.86946  24960481.234          40.000  
        24.000  
  21708127.596   116246051.28506                                        47.000  

  20209824.068   108033102.51907  84025751.71547  20209821.008          51.000  
        35.000  
  22992661.528   122693243.42402                                        34.000  

  23035280.408   122791003.05605                                        42.000  

  23583510.884   125978876.27205  97983572.86046  23583507.884          42.000  
        25.000  
  23363061.108   124976604.03002                                        34.000  

  19911979.688   106478301.42504  82816456.94547  19911976.388          39.000  
        33.000  
  21671092.256   115966404.39806                                        46.000  

 21 12 21 00 04 00.0000000  0 17G08G10G15G16G18G21G23G26G32R04R05R06
                                R10R12R19R20R21
  22167208.154   116489456.10806  90771015.63746  22167210.394          46.000  
        28.000  
  20657867.204   108557842.23007  84590530.74148  20657869.104          51.000  
        47.000  
  24498091.118   128738346.40804 100315601.44246  24498091.058          39.000  
        26.000  
  21841481.736   114777763.36106  89437216.06846  21841482.376          46.000  
        29.000  
  23271506.726   122292631.11205  95292967.68846  23271507.346          41.000  
        21.000  
  24023796.460   126245898.76104  98373434.05145  24023796.140          39.000  
        17.000  
  21315131.178   112011790.50507  87281917.97447  21315131.698          48.000  
        32.000  
  23870715.582   125441456.04005  97746588.52846  23870719.802          41.000  
        31.000  
  24942378.254   131073079.38705 102134866.68446  24942380.274          40.000  
        25.000  
  21721795.596   116319245.34306  90470514.18346  21721792.336          47.000  
        22.000  
  20201353.308   107987823.21407  83990534.50147  20201350.428          51.000  
        35.000  
  22967502.308   122558997.78602                                        34.000  

  23057006.828   122906810.67706                                        43.000  
                
  23570249.924   125908038.88205  97928477.12746  23570246.684          42.000  
        26.000  
  23379184.748   125062860.94902                                        34.000  

  19914853.148   106493669.62605  82828410.01047  19914850.548          40.000  
        34.000  
  21656667.576   115889213.40006                                        47.000  

 21 12 21 00 04 30.0000000  0 17G08G10G15G16G18G21G23G26G32R04R05R06
                                R10R12R19R20R21
  22152177.334   116410468.20306  90709466.62546  22152180.014          47.000  
        29.000  
  20655140.184   108543513.40107  84579365.42648  20655142.224          51.000  
        47.000  
  24508421.298   128792639.23505 100357907.51746  24508422.378          40.000  
        27.000  
  21855091.076   114849279.85306  89492943.20746  21855091.676          46.000  
        28.000  
  23287497.386   122376662.82105  95358446.91346  23287498.066          41.000  
        22.000  
  24009977.440   126173278.12305  98316846.55345  24009976.100          40.000  
        16.000  
  21325683.638   112067242.21806  87325127.07646  21325683.778          47.000  
        31.000  
  23890744.302   125546702.08505  97828598.41346  23890747.262          41.000  
        28.000  
  24924267.134   130977909.04704 102060708.00246  24924269.794          39.000  
        25.000  
  21735587.916   116393101.84306                                        47.000  

  20193029.928   107943327.51307  83955926.76347  20193026.328          50.000  
        35.000  
  22942367.048   122424871.95602                                        35.000  

  23078766.408   123022805.65705                                        41.000  
                
  23557104.944   125837816.41306  97873859.72846  23557101.124          44.000  
        28.000  
  23395330.044   125149230.17802                                        34.000  

  19917781.988   106509335.80004  82840594.80247  19917780.468          39.000  
        33.000  
  21642263.016   115812136.18706  90076096.62346  21642260.916          47.000  
        23.000  
 21 12 21 00 05 00.0000000  0 17G08G10G15G16G18G21G23G26G32R04R05R06
                                R10R12R19R20R21
  22137190.554   116331710.37706  90648096.89646  22137192.714          47.000  
        28.000  
  20652516.464   108529724.74507  84568621.03348  20652518.584          52.000  
        47.000  
  24518853.178   128847453.47304 100400619.93246  24518852.558          39.000  
        27.000  
  21868785.156   114921240.58006  89549016.48046  21868785.056          45.000  
        29.000  
  23303502.506   122460770.87805  95423985.64846  23303503.566          41.000  
        23.000  
  23996182.620   126100787.50705  98260360.39045  23996182.060          40.000  
        16.000  
  21336323.098   112123154.56806  87368695.13346  21336323.118          47.000  
        31.000  
  23910783.702   125652015.53905  97910660.85146  23910787.042          40.000  
        29.000  
  24906148.054   130882693.47704 101986514.03746  24906151.094          39.000  
        26.000  
  21749503.596   116467617.69906                                        47.000  

  20184852.668   107899617.63307  83921930.21247  20184849.308          50.000  
        35.000  
  22917256.048   122290869.97602                                        35.000  

  23100560.548   123138983.09605                                        42.000  

  23544074.964   125768211.77006  97819722.74846  23544071.084          44.000  
        26.000  
  23411499.644   125235712.14902                                        34.000  

  19920767.468   106525300.54005  82853011.82047  19920765.828          40.000  
        33.000  
  21627881.596   115735173.83006  90016237.01946  21627879.116          47.000  
        22.000  
 21 12 21 00 05 30.0000000  0 17G08G10G15G16G18G21G23G26G32R04R05R06
                                R10R12R19R20R21
  22122246.614   116253184.29506  90586907.75246  22122249.814          46.000  
        29.000  
  20649995.524   108516476.03607  84558297.36648  20649997.364          52.000  
        47.000  
  24529383.138   128902786.92004 100443736.92746  24529383.318          38.000  
        26.000  
  21882562.496   114993642.47506  89605433.52946  21882562.316          46.000  
        28.000  
  23319522.346   122544954.50405  95489583.24746  23319523.546          42.000  
        22.000  
  23982413.102   126028426.85905  98203975.51245  23982412.462          40.000  
        15.000  
  21347050.258   112179525.25206  87412620.34746  21347049.958          47.000  
        30.000  
  23930836.962   125757393.55405  97992773.59646  23930840.562          40.000  
        30.000  
  24888020.574   130787435.26304 101912286.87246  24888023.834          38.000  
        25.000  
  21763540.636   116542789.55306                                        46.000  

  20176823.548   107856695.91507  83888546.66847  20176819.828          51.000  
        33.000  
  22892167.568   122156995.90802                                        35.000  

  23122390.348   123255339.13106                                        43.000  
                
  23531160.924   125699228.06406  97766068.74646  23531156.784          43.000  
        23.000  
  23427686.184   125322306.53302                                        34.000  

  19923809.988   106541564.20604  82865661.34047  19923806.888          39.000  
        32.000  
  21613520.656   115658327.09907  89956468.35046  21613516.856          48.000  
        22.000  
 21 12 21 00 06 00.0000000  0 17G08G10G15G16G18G21G23G26G32R04R05R06
                                R10R12R19R20R21
  22107348.874   116174891.81306  90525900.64346  22107351.454          46.000  
        29.000  
  20647576.604   108503767.17407  84548394.37148  20647579.064          52.000  
        47.000  
  24540010.638   128958638.42503 100487257.57246  24540011.318          36.000  
        26.000  
  21896423.614   115066483.49906  89662192.77246  21896422.734          46.000  
        28.000  
  23335555.966   122629212.98305  95555239.16646  23335557.146          41.000  
        22.000  
  23968667.742   125956196.32304  98147691.99845  23968667.982          39.000  
        16.000  
  21357863.458   112236352.23106  87456901.12446  21357863.818          46.000  
        30.000  
  23950901.542   125862833.51304  98074934.60146  23950905.142          39.000  
        29.000  
  24869886.696   130692137.23305 101838028.67146  24869889.776          40.000  
        28.000  
  21777700.696   116618614.13306                                        46.000  

  20168942.068   107814564.50607  83855777.80547  20168938.068          51.000  
        34.000  
  22867103.828   122023253.75802                                        35.000  

  23144250.828   123371869.24305                                        40.000  
                
  23518362.264   125630867.98605  97712899.83446  23518359.644          41.000  
        25.000  
  23443894.864   125409013.29602                                        35.000  

  19926907.268   106558127.00504  82878543.51347  19926904.368          39.000  
        33.000  
  21599182.236   115581597.00107  89896789.39746  21599178.936          48.000  
        24.000  
 21 12 21 00 06 30.0000000  0 17G08G10G15G16G18G21G23G26G32R04R05R06
                                R10R12R19R20R21
  22092495.254   116096835.19206  90465077.29646  22092497.294          47.000  
        28.000  
  20645260.824   108491597.89707  84538911.82148  20645263.424          52.000  
        47.000  
  24550737.278   129015005.92702 100531180.29846  24550738.098          35.000  
        25.000  
  21910368.634   115139760.78306  89719291.94446  21910367.394          47.000  
        29.000  
  23351604.026   122713545.41705  95620952.74646  23351604.526          42.000  
        22.000  
  23954947.142   125884096.03305  98091509.97045  23954946.762          40.000  
        16.000  
  21368764.218   112293633.11306  87501535.57646  21368763.678          47.000  
        30.000  
  23970978.122   125968332.62504  98157141.68346  23970980.322          39.000  
        29.000  
  24851745.136   130596801.91704 101763741.44446  24851747.796          39.000  
        28.000  
  21791981.316   116695088.12206                                        46.000  

  20161209.368   107773224.93007  83823624.79547  20161205.008          51.000  
        34.000  
  22842065.448   121889647.56702                                        35.000  

  23166142.288   123488568.46505                                        42.000  

  23505682.924   125563134.57005  97660218.30046  23505679.744          42.000  
        27.000  
  23460124.664   125495832.03102                                        34.000  

  19930060.968   106574989.45705  82891658.76647  19930057.508          40.000  
        32.000  
  21584864.160   115504984.07406  89837197.57846  21584861.860          47.000  
        24.000  
 21 12 21 00 07 00.0000000  0 17G08G10G15G16G18G21G23G26G32R04R05R06
                                R10R12R19R20R21
  22077687.114   116019016.47506  90404439.32946  22077689.174          46.000  
        30.000  
  20643048.004   108479968.14807  84529849.68648  20643050.284          52.000  
        47.000  
  24561561.118   129071887.40303 100575503.53746  24561561.878          37.000  
        26.000  
  21924394.754   115213471.77006  89776729.06146  21924394.594          47.000  
        29.000  
  23367666.426   122797951.19805  95686723.45246  23367666.366          42.000  
        22.000  
  23941252.082   125812125.98405  98035429.45845  23941252.082          40.000  
        16.000  
  21379750.298   112351365.83906  87546522.12246  21379750.438          47.000  
        30.000  
  23991063.480   126073888.28404  98239392.84846  23991067.240          39.000  
        29.000  
  24833596.376   130501432.14104 101689427.35346  24833599.396          39.000  
        27.000  
  21806383.376   116772207.99306                                        46.000  

  20153624.048   107732679.84907  83792089.73447  20153620.288          52.000  
        35.000  
  22817052.608   121756181.23401                                        33.000  
                
  23188067.228   123605432.72905                                        42.000  

  23493121.804   125496030.65806  97608026.36346  23493117.764          43.000  
        24.000  
  23476374.744   125582763.16601                                        33.000  
                
  19933269.328   106592152.18204  82905007.55647  19933267.448          39.000  
        33.000  
  21570569.660   115428489.52706  89777701.86146  21570567.320          47.000  
        23.000  
 21 12 21 00 07 30.0000000  0 17G08G10G15G16G18G21G23G26G32R04R05R06
                                R10R12R19R20R21
  22062923.874   115941437.16406  90343987.92846  22062926.114          47.000  
        29.000  
  20640937.604   108468877.74307  84521207.81548  20640939.704          51.000  
        47.000  
  24572482.238   129129281.05104 100620225.86246  24572483.878          38.000  
        25.000  
  21938503.734   115287614.09306  89834502.29446  21938503.294          46.000  
        28.000  
  23383741.426   122882429.60505  95752550.75046  23383742.366          41.000  
        22.000  
  23927581.642   125740286.29305  97979450.54045  23927581.002          41.000  
        19.000  
  21390822.158   112409548.27606  87591859.07946  21390822.458          47.000  
        31.000  
  24011160.920   126179497.90705  98321686.04446  24011164.380          40.000  
        29.000  
  24815443.256   130406030.71905 101615088.59946  24815445.196          41.000  
        29.000  
  21820904.636   116849970.70506                                        46.000  

  20146187.868   107692931.10307  83761174.05147  20146184.708          51.000  
        35.000  
  22792068.968   121622859.04002                                        35.000  
                
  23210020.568   123722457.49105                                        42.000  

  23480676.924   125429558.85206  97556326.10446  23480674.484          43.000  
        24.000  
  23492649.064   125669806.17402                                        34.000  
                
  19936534.628   106609615.22704  82918589.91447  19936533.148          39.000  
        33.000  
  21556297.460   115352114.18406  89718303.80046  21556294.860          47.000  
        23.000  
 21 12 21 00 08 00.0000000  0 17G08G10G15G16G18G21G23G26G32R04R05R06
                                R10R12R19R20R21
  22048206.954   115864099.59006  90283724.88346  22048209.234          46.000  
        29.000  
  20638929.504   108458326.48807  84512986.06948  20638931.964          52.000  
        47.000  
  24583501.956   129187185.45904 100665346.19646  24583502.576          38.000  
        25.000  
  21952694.334   115362185.48006  89892609.86146  21952694.034          47.000  
        28.000  
  23399831.164   122966979.98405  95818434.15946  23399832.024          42.000  
        22.000  
  23913935.822   125668576.97805  97923573.18245  23913935.642          41.000  
        18.000  
  21401979.098   112468178.17006  87637544.70746  21401979.578          47.000  
        31.000  
  24031267.640   126285158.80305  98404019.18746  24031270.920          40.000  
        28.000  
  24797282.456   130310600.35704 101540727.28946  24797285.136          39.000  
        29.000  
  21835546.356   116928372.31406                                        47.000  

  20138901.168   107653980.56807  83730879.20947  20138898.268          51.000  
        35.000  
  22767113.672   121489684.98901                                        33.000  
                
  23232002.708   123839638.08905                                        42.000  

  23468352.024   125363721.99305  97505119.68146  23468349.504          42.000  
        24.000  
  23508940.044   125756960.94001                                        33.000  
                
  19939857.708   106627379.72404  82932406.73547  19939855.528          38.000  
        33.000  
  21542047.380   115275858.73707  89658992.01246  21542044.940          48.000  
        25.000  
 21 12 21 00 08 30.0000000  0 17G08G10G15G16G18G21G23G26G32R04R05R06
                                R10R12R19R20R21
  22033536.654   115787005.49806  90223651.57546  22033539.194          46.000  
        29.000  
  20637024.684   108448314.00907  84505184.14948  20637026.724          52.000  
        47.000  
  24594618.256   129245598.40204 100710862.80846  24594618.076          38.000  
        26.000  
  21966965.794   115437182.95006  89951049.42446  21966965.574          46.000  
        29.000  
  23415934.604   123051601.36005  95884372.89846  23415934.864          42.000  
        22.000  
  23900314.222   125596997.81704  97867797.22845  23900314.562          39.000  
        17.000  
  21413220.638   112527253.16106  87683577.17047  21413221.278          47.000  
        32.000  
  24051382.900   126390868.09505  98486390.08146  24051386.420          40.000  
        28.000  
  24779117.536   130215143.66805 101466345.46946  24779120.756          40.000  
        29.000  
  21850305.876   117007409.46807                                        48.000  
                
  20131764.088   107615829.71607  83701206.35547  20131761.488          50.000  
        35.000  
  22742183.812   121356662.87302                                        34.000  
                
  23254013.728   123956970.33105                                        41.000  

  23456147.564   125298522.75306  97454409.10946  23456143.724          43.000  
        22.000  
  23525252.764   125844227.31202                                        34.000  
                
  19943234.428   106645445.32204  82946457.75447  19943233.828          39.000  
        32.000  
  21527819.440   115199724.43006                                        47.000  
                
 21 12 21 00 09 00.0000000  0 17G08G10G15G16G18G21G23G26G32R04R05R06
                                R10R12R19R20R21
  22018912.394   115710157.09106  90163769.69846  22018914.354          47.000  
        29.000  
  20635221.464   108438840.22507  84497801.98448  20635223.904          52.000  
        47.000  
  24605830.476   129304518.12304 100756774.28046  24605829.956          38.000  
        24.000  
  21981317.614   115512603.99406  90009819.06846  21981317.574          45.000  
        28.000  
  23432050.684   123136293.34005  95950366.59246  23432051.344          42.000  
        21.000  
  23886718.962   125525549.39004  97812123.21645  23886717.902          39.000  
        18.000  
  21424546.278   112586771.26506  87729954.91746  21424547.298          47.000  
        30.000  
  24071507.680   126496623.37205  98568796.79246  24071510.920          40.000  
        28.000  
  24760948.156   130119663.67204 101391945.47546  24760951.256          39.000  
        28.000  
  21865183.436   117087078.76906                                        46.000  
                
  20124776.948   107578480.84307  83672157.24747  20124774.228          50.000  
        35.000  
  22717285.132   121223797.00601                                        33.000  
                
  23276052.728   124074449.07305                                        41.000  

  23444061.444   125233964.04706  97404196.81046  23444058.624          44.000  
        27.000  
  23541589.504   125931605.22301                                        33.000  
                
  19946671.408   106663812.90704  82960743.64547  19946668.108          39.000  
        32.000  
  21513614.780   115123712.04806  89540654.71746  21513612.500          47.000  
        23.000  
 21 12 21 00 09 30.0000000  0 17G08G10G15G16G18G21G23G26G32R04R05R06
                                R10R12R19R20R21
  22004336.114   115633556.41006  90104080.85946  22004338.834          46.000  
        30.000  
  20633521.144   108429904.69207  84490839.23948  20633523.604          51.000  
        48.000  
  24617138.696   129363942.64704 100803079.10746  24617137.996          38.000  
        23.000  
  21995749.794   115588446.13706  90068916.84246  21995749.374          46.000  
        28.000  
  23448180.144   123221054.93405  96016414.56845  23448180.724          41.000  
        20.000  
  23873146.522   125454231.35705  97756550.73645  23873146.342          40.000  
        18.000  
  21435956.178   112646730.00806  87776676.01446  21435956.358          47.000  
        30.000  
  24091639.740   126602421.77105  98651237.08946  24091644.600          40.000  
        30.000  
  24742775.516   130024162.76504 101317529.18746  24742777.656          39.000  
        29.000  
  21880178.436   117167376.78706                                        47.000  

  20117941.108   107541935.48807  83643733.11747  20117937.228          51.000  
        34.000  
  22692417.752   121091091.18002                                        34.000  
                
  23298117.588   124192070.78305                                        41.000  

  23432097.284   125170048.47605  97354484.74546  23432093.604          42.000  
        29.000  
  23557943.404   126019094.75001                                        33.000  

  19950162.608   106682482.92304  82975264.77847  19950159.148          39.000  
        32.000  
  21499432.940   115047822.28007  89481629.36946  21499430.080          48.000  
        22.000  
 21 12 21 00 10 00.0000000  0 17G08G10G15G16G18G21G23G26G32R04R05R06
                                R10R12R19R20R21
  21989806.774   115557205.54006  90044586.67446  21989809.054          46.000  
        28.000  
  20631922.944   108421507.15007  84484295.70648  20631925.644          51.000  
        48.000  
  24628542.196   129423870.05203 100849775.80046  24628542.056          36.000  
        23.000  
  22010261.994   115664706.79406  90128340.69846  22010261.874          46.000  
        28.000  
  23464322.924   123305885.56105  96082516.35746  23464323.784          40.000  
        21.000  
  23859600.202   125383043.70905  97701079.88345  23859599.882          40.000  
        17.000  
  21447449.158   112707127.24006  87823738.79346  21447449.598          46.000  
        30.000  
  24111781.740   126708260.65005  98733708.92046  24111784.840          41.000  
        29.000  
  24724598.196   129928643.89203 101243098.91246  24724601.196          37.000  
        28.000  
  21895289.696   117248299.98806                                        47.000  

  20111255.408   107506195.67807  83615935.49147  20111251.488          51.000  
        34.000  
  22667580.452   120958549.62002                                        34.000  

  23320210.148   124309830.67805                                        41.000  

  23420251.564   125106778.69606  97305274.96346  23420249.024          43.000  
        28.000  
  23574317.084   126106695.34800                                        31.000  
                
  19953708.868   106701455.33104  82990021.10047  19953707.908          39.000  
        32.000  
  21485275.260   114972056.24607  89422700.21746  21485271.140          48.000  
        24.000  
 21 12 21 00 10 30.0000000  0 17G08G10G15G16G18G21G23G26G32R04R05R06
                                R10R12R19R20R21
  21975325.514   115481105.99206  89985288.32546  21975327.894          47.000  
        29.000  
  20630427.604   108413647.49907  84478171.30748  20630429.884          52.000  
        48.000  
  24640040.336   129484298.65403 100896863.03446  24640040.856          37.000  
        22.000  
  22024852.754   115741382.77006  90188088.20546  22024852.034          45.000  
        29.000  
  23480479.204   123390784.65805  96148671.45545  23480479.404          40.000  
        19.000  
  23846078.562   125311987.03504  97645711.10145  23846078.202          39.000  
        18.000  
  21459025.798   112767960.89106  87871141.65146  21459025.878          47.000  
        30.000  
  24131928.480   126814137.58305  98816210.46946  24131931.840          40.000  
        29.000  
  24706419.836   129833109.98804 101168656.91746  24706421.376          38.000  
        27.000  
  21910517.756   117329844.92606                                        46.000  

  20104720.928   107471263.13107  83588765.73247  20104716.568          51.000  
        33.000  
  22642773.692   120826176.58502                                        34.000  

  23342326.028   124427724.47605                                        42.000  

  23408529.004   125044157.46106  97256569.57546  23408526.024          44.000  
        23.000  
  23590716.744   126194407.63701                                        33.000  
                
  19957314.348   106720731.07804  83005013.34847  19957312.708          38.000  
        32.000  
  21471137.920   114896415.20506  89363868.31746  21471136.520          46.000  
        24.000  
 21 12 21 00 11 00.0000000  0 17G08G10G15G16G18G21G23G26G32R04R05R06
                                R10R12R19R20R21
  21960893.154   115405260.08606  89926187.62146  21960895.114          46.000  
        28.000  
  20629034.624   108406325.18507  84472465.62048  20629036.384          52.000  
        48.000  
  24651634.456   129545226.35703 100944339.18846  24651634.996          36.000  
        22.000  
  22039522.494   115818472.33806  90248157.99946  22039522.454          46.000  
        28.000  
  23496647.084   123475751.41305  96214879.31245  23496647.564          40.000  
        20.000  
  23832582.002   125241060.83805  97590443.93545  23832581.962          40.000  
        18.000  
  21470684.538   112829228.41406  87918882.58746  21470684.538          46.000  
        30.000  
  24152083.020   126920049.74605  98898739.38246  24152087.580          40.000  
        29.000  
  24688237.576   129737563.61103 101094205.21946  24688239.676          37.000  
        27.000  
  21925861.616   117412007.89206                                        46.000  

  20098337.268   107437139.26907  83562224.95547  20098332.688          51.000  
        34.000  
  22617997.572   120693975.93302                                        34.000  

  23364468.488   124545747.50605                                        42.000  

  23396928.824   124982187.43606  97208370.61146  23396924.944          43.000  
        24.000  
  23607133.124   126282230.78500                                        30.000  
                
  19960974.988   106740310.49404  83020241.75147  19960973.648          38.000  
        32.000  
  21457027.040   114820899.62306  89305133.96746  21457024.620          47.000  
        23.000  
 21 12 21 00 11 30.0000000  0 17G08G10G15G16G18G21G23G26G32R04R05R06
                                R10R12R19R20R21
  21946508.334   115329670.14006  89867286.35946  21946510.554          47.000  
        30.000  
  20627742.904   108399539.93307  84467178.41148  20627745.264          51.000  
        48.000  
  24663323.136   129606651.18502 100992202.70246  24663323.316          34.000  
        21.000  
  22054270.274   115895972.73906  90308547.89546  22054270.074          46.000  
        28.000  
  23512828.724   123560785.10204  96281139.31646  23512829.104          39.000  
        21.000  
  23819109.402   125170265.23905  97535278.56245  23819109.462          40.000  
        16.000  
  21482424.978   112890927.69106  87966959.94746  21482425.618          47.000  
        30.000  
  24172243.020   127025994.42205  98981293.67746  24172246.960          40.000  
        29.000  
  24670053.476   129642007.62804 101019746.04246  24670056.236          39.000  
        28.000  
  21941319.416   117494785.20106                                        46.000  

  20092104.908   107403825.86907  83536314.52647  20092100.488          51.000  
        34.000  
  22593255.932   120561951.58902                                        35.000  

  23386632.584   124663895.78705                                        42.000  

  23385448.724   124920870.97605  97160680.06446  23385446.364          42.000  
        25.000  
  23623570.664   126370164.96400                                        32.000  

  19964694.948   106760194.00105  83035706.71347  19964692.068          40.000  
        33.000  
  21442939.740   114745510.85707  89246498.27446  21442936.040          48.000  
        22.000  
 21 12 21 00 12 00.0000000  0 17G08G10G15G16G18G21G23G26G32R04R05R06
                                R10R12R19R20R21
  21932173.154   115254337.82406  89808585.85146  21932175.854          46.000  
        29.000  
  20626554.204   108393291.49907  84462309.51148  20626556.064          52.000  
        48.000  
  24675105.816   129668571.30902 101040452.17246  24675106.316          34.000  
        21.000  
  22069095.694   115973881.24106  90369255.82146  22069095.694          45.000  
        29.000  
  23529022.304   123645885.28905  96347451.11445  23529023.804          40.000  
        20.000  
  23805663.142   125099600.45405  97480215.10745  23805661.722          41.000  
        17.000  
  21494248.138   112953056.61706  88015372.07946  21494248.498          46.000  
        29.000  
  24192410.260   127131969.26705  99063871.45846  24192413.620          41.000  
        27.000  
  24651868.496   129546444.95305 100945281.63246  24651871.056          40.000  
        28.000  
  21956891.936   117578173.62206                                        46.000  

  20086024.048   107371324.77307  83511035.91147  20086021.088          50.000  
        35.000  
  22568549.372   120430107.92802                                        34.000  

  23408819.764   124782164.10805                                        42.000  

  23374092.868   124860210.98505  97113500.05846  23374090.508          41.000  
        25.000  
  23640032.524   126458210.20800                                        32.000  

  19968468.648   106780382.12004  83051408.59847  19968466.948          39.000  
        32.000  
  21428873.880   114670249.73807  89187961.85746  21428871.720          49.000  
        24.000  
 21 12 21 00 12 30.0000000  0 17G08G10G15G16G18G21G23G26G32R04R05R06
                                R10R12R19R20R21
  21917886.914   115179264.86606  89750087.45646  21917889.674          47.000  
        28.000  
  20625467.164   108387579.42207  84457858.54248  20625468.944          52.000  
        48.000  
  24686983.096   129730971.50802 101089068.84546  24686984.336          35.000  
        21.000  
  22083998.194   116052194.77706  90430279.33146  22083997.994          46.000  
        28.000  
  23545229.144   123731051.10005  96413814.09445  23545229.784          41.000  
        19.000  
  23792239.902   125029066.65305  97425253.79245  23792240.022          40.000  
        18.000  
  21506152.118   113015612.72006  88064117.08646  21506152.378          47.000  
        30.000  
  24212580.920   127237971.46004  99146470.57346  24212585.140          39.000  
        26.000  
  24633682.736   129450878.34905 100870814.15046  24633685.216          41.000  
        29.000  
  21972577.636   117662169.25506                                        46.000  

  20080096.528   107339637.25307  83486390.07747  20080093.608          50.000  
        35.000  
  22543877.612   120298448.98503                                        36.000  
                
  23431026.564   124900548.94705                                        41.000  

  23362861.668   124800209.75306  97066832.42946  23362858.448          43.000  
        26.000  
  23656512.384   126546366.14100                                        30.000  

  19972301.488   106800875.34804  83067347.75147  19972299.108          39.000  
        32.000  
  21414833.820   114595117.28807  89129525.52446  21414831.880          49.000  
        24.000  
 21 12 21 00 13 00.0000000  0 17G08G10G15G16G18G21G23G26G32R04R05R06
                                R10R12R19R20R21
  21903650.994   115104453.98406  89691793.28746  21903653.694          47.000  
        28.000  
  20624482.104   108382403.25207  84453825.17548  20624484.024          52.000  
        48.000  
  24698953.196   129793875.88001 101138085.26146  24698953.756          33.000  
        21.000  
  22098977.094   116130910.57106  90491616.31746  22098977.554          46.000  
        28.000  
  23561448.164   123816281.87405  96480227.66445  23561448.644          41.000  
        20.000  
  23778843.322   124958663.79705  97370394.37545  23778843.562          40.000  
        16.000  
  21518137.058   113078593.78106  88113193.24546  21518136.938          47.000  
        29.000  
  24232757.860   127343998.39005  99229088.94846  24232761.080          40.000  
        27.000  
  24615496.076   129355310.50804 100796345.69746  24615499.496          39.000  
        28.000  
  21988376.376   117746768.57906                                        46.000  

  20074321.588   107308764.83407  83462378.22247  20074318.168          50.000  
        36.000  
  22519237.152   120166978.71002                                        34.000  
                
  23453257.304   125019045.52805                                        42.000  

  23351753.148   124740869.97406  97020679.27846  23351750.028          44.000  
        26.000  
  23673010.904   126634632.67100                                        31.000  

  19976191.328   106821673.87004  83083524.38147  19976188.768          38.000  
        33.000  
  21400818.240   114520114.60606  89071190.08546  21400815.240          47.000  
        22.000  
 21 12 21 00 13 30.0000000  0 17G08G10G15G16G18G21G23G26G32R04R05R06
                                R10R12R19R20R21
  21889464.934   115029906.59706  89633704.40846  21889467.574          47.000  
        28.000  
  20623598.784   108377762.67207  84450209.14948  20623600.904          52.000  
        48.000  
  24711017.116   129857269.48603 101187482.83746  24711017.956          36.000  
        23.000  
  22114032.834   116210026.58306  90553265.13946  22114032.794          46.000  
        29.000  
  23577678.844   123901577.04805  96546691.38945  23577679.824          40.000  
        20.000  
  23765470.222   124888392.02305  97315637.22045  23765471.102          40.000  
        18.000  
  21530202.438   113141997.54207  88162598.79046  21530201.718          48.000  
        30.000  
  24252938.440   127450047.45005  99311724.62646  24252941.640          40.000  
        28.000  
  24597311.436   129259744.32704 100721878.56346  24597313.816          39.000  
        27.000  
  22004285.976   117831968.17106                                        46.000  

  20068698.268   107278709.17007  83439001.61347  20068695.588          50.000  
        35.000  
  22494637.492   120035701.28603                                        36.000  
                
  23475506.624   125137649.53305                                        42.000  

  23340768.828   124682193.93805  96975042.35146  23340765.668          42.000  
        22.000  
  23689532.424   126723009.71500                                        32.000  

  19980138.048   106842778.57104  83099939.14247  19980135.888          38.000  
        32.000  
  21386827.180   114445242.55707  89012956.26746  21386823.740          48.000  
        23.000  
 21 12 21 00 14 00.0000000  0 17G08G10G15G16G18G21G23G26G32R04R05R06
                                R10R12R19R20R21
  21875329.856   114955624.92306  89575822.60346  21875332.396          46.000  
        29.000  
  20622817.484   108373657.04707  84447009.96748  20622819.904          51.000  
        48.000  
  24723174.556   129921149.99102 101237259.91146  24723174.296          34.000  
        22.000  
  22129163.454   116289539.89706  90615223.56046  22129163.694          46.000  
        28.000  
  23593922.384   123986935.80805  96613204.73145  23593923.284          41.000  
        20.000  
  23752124.282   124818251.18405  97260982.01845  23752123.162          41.000  
        18.000  
  21542347.858   113205821.55606  88212331.79646  21542347.518          46.000  
        30.000  
  24273122.180   127556115.95004  99394375.38946  24273125.280          39.000  
        26.000  
  24579126.078   129164182.47704 100647414.79046  24579128.618          39.000  
        27.000  
  22020308.656   117917764.07306                                        46.000  

  20063229.308   107249471.50207  83416261.22147  20063226.048          51.000  
        35.000  
  22470073.292   119904620.71402                                        34.000  
                
  23497777.044   125256356.51905                                        41.000  

  23329909.568   124624184.22206  96929923.69346  23329906.308          43.000  
        27.000  
  23706076.004   126811496.88100                                        31.000  

  19984142.148   106864189.55304  83116592.12047  19984139.748          39.000  
        32.000  
  21372859.760   114370502.02407  88954824.76046  21372857.200          48.000  
        25.000  
 21 12 21 00 14 30.0000000  0 17G08G10G15G16G18G21G23G26G32R04R05R06
                                R10R12R19R20R21
  21861244.996   114881611.15906  89518149.56046  21861247.956          46.000  
        28.000  
  20622137.864   108370086.14007  84444227.44248  20622140.484          51.000  
        48.000  
  24735421.176   129985516.06702 101287415.25245  24735422.376          34.000  
        19.000  
  22144370.034   116369448.04206  90677489.63746  22144369.534          46.000  
        28.000  
  23610177.524   124072357.72604  96679767.17645  23610178.684          39.000  
        20.000  
  23738800.782   124748241.46805  97206429.04245  23738801.322          41.000  
        17.000  
  21554572.578   113270063.72806  88262390.61946  21554572.778          46.000  
        30.000  
  24293310.918   127662201.38205  99477039.33846  24293314.078          41.000  
        28.000  
  24560942.998   129068628.00705 100572956.76046  24560945.078          40.000  
        28.000  
  22036440.176   118004152.82506                                        46.000  

  20057913.548   107221053.39007  83394158.25847  20057909.668          51.000  
        35.000  
  22445547.572   119773741.39703                                        36.000  
                
  23520063.764   125375162.15505                                        41.000  

  23319174.788   124566843.46706  96885325.36846  23319172.288          44.000  
        26.000  
  23722638.744   126900094.40601                                        33.000  
                
  19988203.528   106885907.16205  83133483.61047  19988201.828          40.000  
        33.000  
  21358917.540   114295894.62407  88896796.76446  21358914.200          48.000  
        23.000  
 21 12 21 00 15 00.0000000  0 17G08G10G15G16G18G21G23G26G32R04R05R06
                                R10R12R19R20R21
  21847212.836   114807866.35106  89460686.07746  21847214.416          47.000  
        29.000  
  20621559.944   108367049.01007  84441860.85848  20621562.484          52.000  
        48.000  
  24747762.236   130050364.48203 101337946.58146  24747762.656          36.000  
        21.000  
  22159650.134   116449747.51206  90740060.62346  22159650.194          46.000  
        27.000  
  23626445.084   124157841.68804  96746378.03745  23626445.364          39.000  
        20.000  
  23725503.722   124678362.41505  97151977.79945  23725503.102          41.000  
        17.000  
  21566876.278   113334721.33506  88312773.15446  21566876.878          46.000  
        28.000  
  24313499.718   127768300.74005  99559714.12146  24313503.318          40.000  
        27.000  
  24542761.478   128973083.27205 100498506.31146  24542763.778          40.000  
        28.000  
  22052683.316   118091130.31606                                        46.000  

  20052750.648   107193455.47407  83372693.22647  20052746.748          51.000  
        34.000  
  22421058.272   119643066.79702                                        35.000  
                
  23542368.064   125494061.68705                                        41.000  

  23308565.708   124510173.41306  96841248.60146  23308562.608          43.000  
        24.000  
  23739220.424   126988801.69100                                        31.000  
                
  19992322.368   106907931.82804  83150613.89547  19992319.528          39.000  
        32.000  
  21345000.280   114221420.62707  88838872.57546  21344997.480          48.000  
        23.000  
 21 12 21 00 15 30.0000000  0 17G08G10G15G16G18G21G23G26G32R04R05R06
                                R10R12R19R20R21
  21833230.456   114734393.65006  89403434.61446  21833232.756          46.000  
        28.000  
  20621083.804   108364545.58007  84439910.13248  20621085.944          51.000  
        48.000  
  24760194.216   130115693.93402 101388852.59146  24760194.336          35.000  
        22.000  
  22175004.974   116530436.10606  90802934.84346  22175004.794          46.000  
        28.000  
