     2.11           OBSERVATION DATA    M (MIXED)           RINEX VERSION / TYPE
ssrcrin-13.4.4x                         20210101 000000 UTC PGM / RUN BY / DATE
gfzrnx-1.10-7329    FILE CONVERSION     20210102 000140 UTC COMMENT
  3859571.8076   413007.6749  5044091.5729                  APPROX POSITION XYZ
(000000000148894499830103) Septentrio proprietary           COMMENT
SEPTENTRIO RECEIVERS OUTPUT ALIGNED CARRIER PHASES.         COMMENT
NO FURTHER PHASE SHIFT APPLIED IN THE RINEX ENCODER.        COMMENT
3057780             SEPT POLARX5        5.3.2               REC # / TYPE / VERS
ROVN                                                        MARKER NAME
        0.0000        0.0000        0.0000                  ANTENNA: DELTA H/E/N
13544M001                                                   MARKER NUMBER
Hans van der Marel  TU Delft for Deltares                   OBSERVER / AGENCY
5681                SEPCHOKE_B3E6   SPKE                    ANT # / TYPE
                                                            COMMENT
*********************************************************** COMMENT
*                 WARNING - FORMAT CONVERSION             * COMMENT
* ------------------------------------------------------- * COMMENT
*  The data values: observation, loss of lock (LLI) and   * COMMENT
*  signal strength (SSI) indicators are left as they are. * COMMENT
*    The LLI meaning differs between versions 2 and 3     * COMMENT
*    and the Interpretation of bit 1 and 2 has to be      * COMMENT
*                   used with caution !!!                 * COMMENT
*********************************************************** COMMENT
                                                            COMMENT
RINEX 3 -> 2 TYPE CONVERSION DETAILS:                       COMMENT
-------------------------------------                       COMMENT
   G C1C -> C1                                              COMMENT
   G C2L -> C2                                              COMMENT
   G C5Q -> C5                                              COMMENT
   G L1C -> L1                                              COMMENT
   G L2W -> L2                                              COMMENT
   G L5Q -> L5                                              COMMENT
   G C1W -> P1                                              COMMENT
   G C2W -> P2                                              COMMENT
   G S1C -> S1                                              COMMENT
   G S2W -> S2                                              COMMENT
   G S5Q -> S5                                              COMMENT
-------------------------------------                       COMMENT
   R C1C -> C1                                              COMMENT
   R C2C -> C2                                              COMMENT
   R L1C -> L1                                              COMMENT
   R L2C -> L2                                              COMMENT
   R S1C -> S1                                              COMMENT
   R S2C -> S2                                              COMMENT
-------------------------------------                       COMMENT
                                                            COMMENT
    11    C1    C2    C5    L1    L2    L5    P1    P2    S1# / TYPES OF OBSERV
          S2    S5                                          # / TYPES OF OBSERV
    54                                                      # OF SATELLITES
   G01  1014  1014  1015  1012  1010  1015  1010  1010  1014PRN / # OF OBS
        1010  1015                                          PRN / # OF OBS
   G02  1158              1152  1149        1149  1149  1158PRN / # OF OBS
        1149                                                PRN / # OF OBS
   G03   972   982   976   884   882   976   882   882   972PRN / # OF OBS
         882   976                                          PRN / # OF OBS
   G04  1036  1036  1042  1021  1020  1042  1020  1020  1036PRN / # OF OBS
        1020  1042                                          PRN / # OF OBS
   G05  1110  1109        1100  1100        1101  1101  1110PRN / # OF OBS
        1101                                                PRN / # OF OBS
   G06  1120  1117  1125  1098  1098  1125  1098  1098  1120PRN / # OF OBS
        1098  1125                                          PRN / # OF OBS
   G07  1094  1075        1068  1066        1068  1068  1094PRN / # OF OBS
        1068                                                PRN / # OF OBS
   G08  1059  1061  1067  1043  1037  1067  1037  1037  1059PRN / # OF OBS
        1037  1067                                          PRN / # OF OBS
   G09   982   974   957   838   833   957   833   833   982PRN / # OF OBS
         833   957                                          PRN / # OF OBS
   G10  1125  1129  1128  1114  1113  1128  1113  1113  1125PRN / # OF OBS
        1113  1128                                          PRN / # OF OBS
   G12   996   980         918   913         913   913   996PRN / # OF OBS
         913                                                PRN / # OF OBS
   G13  1020              1019  1011        1011  1011  1020PRN / # OF OBS
        1011                                                PRN / # OF OBS
   G14  1123  1115  1117  1082  1076  1117  1076  1076  1123PRN / # OF OBS
        1076  1117                                          PRN / # OF OBS
   G15  1070  1065        1059  1055        1055  1055  1070PRN / # OF OBS
        1055                                                PRN / # OF OBS
   G16  1100              1088  1081        1081  1081  1100PRN / # OF OBS
        1081                                                PRN / # OF OBS
   G17  1142  1137        1138  1136        1137  1137  1142PRN / # OF OBS
        1137                                                PRN / # OF OBS
   G18  1076  1075  1078  1046  1044  1078  1044  1044  1076PRN / # OF OBS
        1044  1078                                          PRN / # OF OBS
   G19  1104              1098  1097        1097  1097  1104PRN / # OF OBS
        1097                                                PRN / # OF OBS
   G20  1116              1106  1098        1098  1098  1116PRN / # OF OBS
        1098                                                PRN / # OF OBS
   G21  1020               993   985         985   985  1020PRN / # OF OBS
         985                                                PRN / # OF OBS
   G22   961               838   837         837   837   961PRN / # OF OBS
         837                                                PRN / # OF OBS
   G23  1114  1109  1110  1095  1085  1110  1085  1085  1114PRN / # OF OBS
        1085  1110                                          PRN / # OF OBS
   G24   984   980   984   957   951   984   952   952   984PRN / # OF OBS
         952   984                                          PRN / # OF OBS
   G25   970   959   954   935   929   954   930   930   970PRN / # OF OBS
         930   954                                          PRN / # OF OBS
   G26  1034  1036  1054  1027  1026  1054  1026  1026  1034PRN / # OF OBS
        1026  1054                                          PRN / # OF OBS
   G27  1039  1051  1053  1032  1030  1053  1030  1030  1039PRN / # OF OBS
        1030  1053                                          PRN / # OF OBS
   G28  1145              1120  1115        1115  1115  1145PRN / # OF OBS
        1115                                                PRN / # OF OBS
   G29  1000   989         957   951         951   951  1000PRN / # OF OBS
         951                                                PRN / # OF OBS
   G30  1021  1020  1019   995   992  1019   992   992  1021PRN / # OF OBS
         992  1019                                          PRN / # OF OBS
   G31  1122  1119        1118  1117        1118  1118  1122PRN / # OF OBS
        1118                                                PRN / # OF OBS
   G32  1132  1130  1133  1129  1127  1133  1127  1127  1132PRN / # OF OBS
        1127  1133                                          PRN / # OF OBS
   R01  1177  1172        1175  1168                    1177PRN / # OF OBS
        1172                                                PRN / # OF OBS
   R02  1228  1217        1227  1215                    1228PRN / # OF OBS
        1217                                                PRN / # OF OBS
   R03  1252  1248        1251  1245                    1252PRN / # OF OBS
        1248                                                PRN / # OF OBS
   R04  1109  1091        1108  1088                    1109PRN / # OF OBS
        1091                                                PRN / # OF OBS
   R05  1093  1093        1081  1078                    1093PRN / # OF OBS
        1093                                                PRN / # OF OBS
   R06  1045              1035                          1045PRN / # OF OBS
                                                            PRN / # OF OBS
   R07  1042  1045        1038  1034                    1042PRN / # OF OBS
        1045                                                PRN / # OF OBS
   R08  1020  1016        1006  1008                    1020PRN / # OF OBS
        1016                                                PRN / # OF OBS
   R09  1225  1225        1224  1221                    1225PRN / # OF OBS
        1225                                                PRN / # OF OBS
   R10  1113              1111                          1113PRN / # OF OBS
                                                            PRN / # OF OBS
   R12  1051  1051        1040  1039                    1051PRN / # OF OBS
        1051                                                PRN / # OF OBS
   R13  1000  1016         862   923                    1000PRN / # OF OBS
        1016                                                PRN / # OF OBS
   R14  1095  1088        1092  1086                    1095PRN / # OF OBS
        1088                                                PRN / # OF OBS
   R15  1203  1202        1200  1194                    1203PRN / # OF OBS
        1202                                                PRN / # OF OBS
   R16  1227  1219        1207  1191                    1227PRN / # OF OBS
        1219                                                PRN / # OF OBS
   R17  1278  1276        1264  1262                    1278PRN / # OF OBS
        1276                                                PRN / # OF OBS
   R18  1278  1273        1264  1267                    1278PRN / # OF OBS
        1273                                                PRN / # OF OBS
   R19  1173  1261        1146  1192                    1173PRN / # OF OBS
        1261                                                PRN / # OF OBS
   R20   985  1042         947  1023                     985PRN / # OF OBS
        1042                                                PRN / # OF OBS
   R21  1024  1023        1023  1017                    1024PRN / # OF OBS
        1023                                                PRN / # OF OBS
   R22  1035   911        1001   830                    1035PRN / # OF OBS
         911                                                PRN / # OF OBS
   R23  1016              1016                          1016PRN / # OF OBS
                                                            PRN / # OF OBS
   R24  1111  1105        1099  1097                    1111PRN / # OF OBS
        1105                                                PRN / # OF OBS
    30.000                                                  INTERVAL
  2021     1     1     0     0    0.0000000     GPS         TIME OF FIRST OBS
  2021     1     1    23    59   30.0000000     GPS         TIME OF LAST OBS
                                                            END OF HEADER
 21 01 01 00 00 00.0000000  0 24G07G08G10G13G15G16G18G20G21G23G26G27
                                G30R01R02R03R08R09R15R16R17R18R19R24
  24225566.040 6  24225562.932 6                 127306204.85206  99199629.81904
                  24225565.620 4  24225563.191 4        40.586          25.564

  21911712.315 7  21911713.545 7  21911710.943 8 115146830.08007  89724806.65908
  85986267.87208  21911711.622 8  21911712.836 8        46.341          48.973
        51.137
  21441506.380 8  21441506.635 7  21441504.110 8 112675882.77408  87799398.82609
  84141063.80208  21441505.790 9  21441506.827 9        50.908          55.098
        52.336
  25038098.811 5                                 131576099.63705 102526816.57501
                  25038098.244 1  25038095.594 1        34.695          11.630

  24128665.171 6  24128663.508 5                 126797010.33606  98802862.31905
                  24128664.935 5  24128662.756 5        36.363          30.385

  21794452.438 7                                 114530614.59707  89244620.29706
                  21794451.491 6  21794450.155 6        47.793          38.222

  23112568.347 6  23112566.434 6  23112569.838 7 121457382.71806  94642115.44104
  90698709.08307  23112568.048 4  23112566.448 4        41.890          28.275
        46.724
  21272542.995 8                                 111787980.00708  87107523.39006
                  21272541.775 6  21272540.159 6        48.204          39.261

  23841442.903 6                                 125287634.89706  97626720.31403
                  23841441.674 3  23841440.981 3        38.682          21.214

  21351326.547 8  21351324.802 7  21351327.860 8 112201988.65908  87430121.48306
  83787213.78708  21351326.261 6  21351324.528 6        48.219          40.215
        52.102
  24001643.520 6  24001644.034 6  24001643.159 7 126129482.20106  98282716.52305
  94187593.06207  24001642.944 5  24001644.190 5        36.662          31.072
        43.433
  20168131.548 8  20168131.203 8  20168130.066 9 105984273.59608  82585145.50009
  79144104.23109  20168130.873 9  20168131.082 9        52.023          57.864
        55.236
  24894516.482 6  24894515.864 5  24894514.822 6 130821563.22006 101938879.97902
  97691424.22006  24894515.695 2  24894515.672 2        36.488          16.340
        40.331
  21894203.471 7  21894208.080 6                 117037083.93707  91028863.08506
                                                        43.613          40.439

  21400976.451 8  21400980.358 7                 114199714.47608  88822018.38207
                                                        50.232          45.341

  24364973.216 6  24364976.624 6                 130427607.60006 101443706.08906
                                                        39.556          39.670

  24583288.493 5  24583290.193 5                 131642409.52605 102388562.89705
                                                        35.305          35.224

  22623528.723 7  22623529.784 7                 120808401.90607  93962071.86807
                                                        45.031          42.214

  22418611.058 7  22418614.817 7                 119798250.49407  93176416.52207
                                                        46.399          42.144

  20824226.617 7  20824228.341 7                 111239279.72207  86519447.97807
                                                        47.041          43.754

  19563719.542 8  19563722.612 8                 104689437.02608  81425155.18708
                                                        53.131          50.032

  20194071.888 8  20194076.142 8                 107797362.97208  83842427.99908
                                                        52.225          49.534

  23854957.823 4  23854963.858 5                 127608049.38704  99250647.64905
                                                        29.412          35.662

  23126824.976 6  23126830.088 6                 123669526.37706  96187435.84906
                                                        41.931          39.856

 21 01 01 00 00 30.0000000  0 24G07G08G10G13G15G16G18G20G21G23G26G27
                                G30R01R02R03R08R09R15R16R17R18R19R24
  24229633.254 6  24229630.987 6                 127327580.00906  99216285.78304
                  24229632.834 4  24229630.554 4        38.799          24.391

  21897148.423 7  21897149.374 7  21897146.893 8 115070295.89207  89665169.62008
  85929115.71708  21897147.739 8  21897148.487 8        46.357          48.803
        51.009
  21431951.806 8  21431952.050 7  21431949.457 8 112625672.73108  87760274.13709
  84103569.31508  21431951.216 9  21431952.103 9        50.960          54.999
        52.315
  25042652.801 5                                 131600030.26005 102545463.87002
                  25042652.193 2  25042649.546 2        34.843          12.364

  24128508.316 6  24128506.077 5                 126796183.80406  98802218.28705
                  24128508.088 5  24128505.795 5        36.174          30.143

  21810475.634 7                                 114614817.36707  89310232.83506
                  21810474.691 6  21810473.456 6        47.650          38.033

  23130795.141 6  23130793.928 6  23130797.056 7 121553166.95206  94716752.48904
  90770236.25207  23130794.846 4  23130793.759 4        41.607          28.351
        46.756
  21277693.977 7                                 111815048.39607  87128615.64806
                  21277692.757 6  21277691.063 6        47.871          39.111

  23824898.978 6                                 125200697.08106  97558976.60503
                  23824897.762 3  23824897.031 3        38.153          21.238

  21354571.588 7  21354569.677 7  21354572.878 8 112219041.39007  87443409.33506
  83799947.97808  21354571.302 6  21354569.376 6        47.926          39.985
        52.066
  24022924.899 6  24022926.011 6  24022924.337 7 126241316.89006  98369860.43105
  94271105.96907  24022924.318 5  24022925.785 5        37.380          31.140
        43.710
  20166300.283 8  20166300.073 8  20166298.764 9 105974650.27308  82577646.80509
  79136917.98209  20166299.608 9  20166299.838 9        52.016          57.775
        55.217
  24890045.051 5  24890044.960 5  24890044.142 6 130798066.77205 101920571.04502
  97673878.15706  24890044.296 2  24890044.396 2        34.438          15.524
        40.901
  21904101.178 7  21904105.823 6                 117089995.69807  91070016.68206
                                                        43.776          40.162

  21384267.172 8  21384270.856 7                 114110548.87908  88752667.37507
                                                        50.106          45.398

  24339759.187 5  24339762.962 6                 130292640.20805 101338731.45306
                                                        33.449          40.815

  24604491.666 5  24604492.523 5                 131755949.41505 102476871.62205
                                                        31.819          32.635

  22607608.089 7  22607610.208 7                 120723388.69807  93895950.48407
                                                        44.445          43.551

  22442162.835 7  22442166.722 7                 119924101.34607  93274300.49107
                                                        46.171          43.035

  20829619.741 7  20829621.281 7                 111268087.98807  86541854.39507
                                                        46.918          43.934

  19571023.594 8  19571026.615 8                 104728522.34308  81455554.85808
                                                        53.329          49.718

  20182954.360 8  20182957.856 8                 107738014.86108  83796268.35308
                                                        52.386          49.416

  23835058.200 5  23835060.800 6                 127501589.01905  99167845.24006
                                                        30.596          36.526

  23146424.072 7  23146429.094 6                 123774332.12707  96268951.32906
                                                        42.239          40.460

 21 01 01 01 10 00.0000000  0 25G01G07G08G10G14G15G16G20G21G22G23G27
                                G28G30G32R01R02R03R04R09R10R16R17R18
                                R19
  23297418.134 6  23297419.587 6  23297417.670 7 122428777.91106  95399062.00004
  91424084.29307  23297417.889 4  23297419.734 4        39.357          25.398
        44.608
  25596412.551 3  25596410.051 3
                                                        23.505

  20494087.744 8  20494089.129 8  20494086.235 8 107697162.74608  83919870.97109
  80423204.65008  20494087.074 9  20494088.102 9        50.704          55.568
        53.725
  21146289.403 8  21146289.348 7  21146286.837 8 111124513.40308  86590541.24309
  82982575.61808  21146288.813 9  21146289.512 9        51.384          55.790
        52.942
  24658679.230 6  24658676.983 5  24658679.613 6 129582222.53006 100973154.90502
  96765955.32506  24658678.944 2  24658676.140 2        36.681          17.509
        38.381
  25184005.126 5  25184002.688 5                 132342859.81705 103124304.47704
                  25184004.836 4  25184002.068 4        34.143          25.759

  24578101.116 6                                 129158781.01006 100643190.73403
                  24578100.240 3  24578098.747 3        39.000          20.214

  22905302.066 6                                 120368188.98306  93793400.66604
                  22905300.904 4  22905299.411 4        41.423          26.515

  21911610.883 7                                 115146316.94907  89724398.89506
                  21911609.681 6  21911607.764 6        47.743          38.033

  25252394.231 5                                 132702218.20105 103404316.28902
                  25252393.069 2  25252390.021 2        35.162          12.909

  22810553.483 7  22810551.756 6  22810554.894 7 119870279.06707  93405413.03704
  89513534.92607  22810553.193 4  22810551.423 4        42.301          29.848
        47.973
  20780166.391 8  20780166.544 8  20780165.274 9 109200532.59608  85091319.88409
  81545854.45209  20780165.707 9  20780166.169 9        50.436          56.144
        54.085
  25480539.286 5                                 133901136.50705 104338533.87701
                  25480538.956 1  25480535.890 1        33.060           8.476

  25258767.879 5  25258767.429 5  25258766.914 5 132735718.50305 103430429.23701
  99120825.62305  25258767.182 1  25258767.885 1        32.485          10.963
        35.590
  24354421.667 6  24354422.229 6  24354420.719 7 127983348.66406  99727290.56505
  95571980.03707  24354421.377 5  24354422.217 5        39.760          35.248
        42.036
  24371550.798 5  24371556.530 5                 130279931.31005 101328855.89705
                                                        33.850          33.647

  20372173.959 8  20372177.662 8                 108709840.86508  84552119.77208
                                                        52.041          48.929

  21093764.787 8  21093769.110 7                 112916585.20408  87824023.27207
                                                        49.762          47.560

  24639601.373 4                                 131943966.48404
                                                        26.395

  21707954.625 8  21707956.711 7                 115919284.85008  90159424.45707
                                                        48.278          46.185

  23289893.184 6                                 124148217.11306
                                                        41.271

  22829598.610 6  22829600.411 6                 121951595.63406  94851244.57306
                                                        40.484          38.748

  21240312.918 8  21240316.901 7                 113661219.88608  88403206.22707
                                                        48.634          46.545

  19346764.223 8  19346767.446 8                 103274374.81008  80324548.41308
                                                        52.492          49.388

  21270835.957 6  21270840.571 7                 113784750.62606  88499195.90707
                                                        38.351          44.415

 21 01 01 02 25 00.0000000  0 20G01G03G08G10G14G21G22G24G27G28G32R02
                                R03R04R09R10R17R18R19R20
  20855258.953 8  20855259.501 7  20855257.810 8 109595161.31608  85398844.78408
  81840543.79608  20855258.694 8  20855259.840 8        48.422          52.536
        52.879
  24276370.399 6  24276371.876 6  24276370.954 6 127573188.51506  99407682.85805
  95265693.62506  24276370.185 5  24276371.202 5        36.681          30.996
        40.687
  20877684.402 8  20877685.812 8  20877683.184 8 109712971.34508  85490629.53209
  81928514.73508  20877683.718 9  20877685.001 9        50.329          54.718
        53.331
  22934596.866 7  22934596.414 6  22934593.991 7 120522131.92607  93913361.20207
  90000277.99007  22934596.290 7  22934596.312 7        44.501          43.630
        47.727
  23043218.745 7  23043216.767 7  23043219.914 7 121092919.27807  94358112.77604
  90426539.73307  23043218.432 4  23043216.660 4        42.064          29.327
        46.504
  20878126.371 8                                 109715322.13308  85492455.70707
                  20878125.151 7  20878122.864 7        48.164          42.707

  22327493.292 7                                 117331769.21307  91427344.97405
                  22327491.924 5  22327489.416 5        46.460          35.967

  25207320.193 5  25207321.200 6  25207320.174 6 132465362.73605 103219765.18504
  98918939.56906  25207319.845 4  25207320.484 4        32.581          27.162
        41.750
  23171597.088 7  23171597.833 7  23171596.367 7 121767578.13007  94883821.01907
  90930334.25707  23171596.400 7  23171597.523 7        42.794          43.202
        47.068
  23577440.969 6                                 123900284.95606  96545661.88804
                  23577440.062 4  23577437.884 4        40.715          25.789

  22357806.654 7  22357807.413 7  22357804.850 7 117491075.35807  91551495.15308
  87736843.21207  22357806.364 8  22357806.881 8        46.912          48.779
        47.996
  22364746.535 7  22364749.156 6                 119342590.97407  92822037.35006
                                                        46.163          41.602

  19687384.134 8  19687386.834 8                 105388127.99908  81968559.30408
                                                        52.775          49.855

  20954534.610 8  20954538.140 7                 112210597.20108  87274901.92207
                                                        50.099          47.810

  23697380.019 6  23697382.704 6                 126542687.29906  98422066.68406
                                                        41.824          40.915

  22659752.401 7                                 120789206.69607
                                                        44.298

  24133233.502 5  24133240.504 6                 129141829.83905 100443679.24506
                                                        32.874          40.877

  20256279.574 8  20256283.882 8                 108129426.19408  84100698.17708
                                                        51.580          50.130

  19458251.527 7  19458254.238 7                 104088641.41007  80957778.01307
                                                        42.246          47.042

  23341996.602 6  23342001.438 6                 124820134.71306  97082354.16206
                                                        36.692          38.237

 21 01 01 02 25 30.0000000  0 20G01G03G08G10G14G21G22G24G27G28G32R02
                                R03R04R09R10R17R18R19R20
  20842905.789 8  20842906.071 7  20842904.443 8 109530244.49708  85348260.24608
  81792066.95608  20842905.530 8  20842906.293 8        48.373          52.365
        52.701
  24254855.680 6  24254857.071 6  24254856.630 6 127460128.18206  99319583.90205
  95181265.45506  24254855.484 5  24254856.445 5        36.631          30.574
        41.750
  20887627.272 8  20887628.808 8  20887625.993 8 109765221.04708  85531343.57409
  81967532.35608  20887626.588 9  20887627.893 9        50.066          54.603
        53.113
  22951566.858 7  22951566.888 7  22951564.402 7 120611312.27607  93982852.39007
  90066873.70507  22951566.277 7  22951566.664 7        43.448          43.196
        47.250
  23040213.519 6  23040212.129 7  23040214.963 7 121077127.78006  94345807.71204
  90414747.38607  23040213.211 4  23040211.630 4        41.914          29.393
        46.357
  20875227.611 8                                 109700089.72308  85480586.30207
                  20875226.391 7  20875224.210 7        48.085          42.597

  22311369.977 7                                 117247041.05207  91361323.05505
                  22311368.609 5  22311365.978 5        46.402          35.733

  25205268.085 5  25205268.811 6  25205268.214 6 132454579.22605 103211362.44704
  98910886.96206  25205267.737 4  25205268.182 4        31.970          25.278
        41.685
  23191839.401 7  23191840.729 7  23191839.138 7 121873954.48307  94966711.67907
  91009771.14407  23191838.713 7  23191840.007 7        42.372          42.593
        46.503
  23570736.763 6                                 123865054.04306  96518209.23204
                  23570735.869 4  23570733.936 4        41.228          25.865

  22350775.096 7  22350775.845 7  22350773.540 7 117454125.81107  91522703.32308
  87709251.03907  22350774.810 8  22350775.490 8        47.264          48.698
        47.598
  22385887.638 7  22385891.152 7                 119455406.38507  92909782.67407
                                                        46.071          42.423

  19689040.479 8  19689043.468 8                 105396994.85108  81975455.74308
                                                        52.924          49.712

  20934204.444 8  20934208.476 7                 112101732.65108  87190229.49707
                                                        49.823          47.506

  23717611.081 6  23717613.940 6                 126650719.35006  98506091.55006
                                                        41.476          41.237

  22666571.929 7                                 120825561.03607
                                                        44.078

  24154881.367 5  24154887.798 6                 129257662.71605 100533771.37406
                                                        31.932          41.380

  20268919.777 8  20268923.545 8                 108196897.74108  84153176.03008
                                                        51.799          50.101

  19451756.626 7  19451759.310 7                 104053897.73607  80930755.15707
                                                        42.442          46.861

  23320736.894 5  23320742.014 6                 124706446.05705  96993929.62406
                                                        35.024          39.120

 21 01 01 02 26 00.0000000  0 20G01G03G08G10G14G21G22G24G27G28G32R02
                                R03R04R09R10R17R18R19R20
  20830614.665 8  20830614.975 7  20830613.274 8 109465654.38208  85297930.27308
  81743834.06408  20830614.406 8  20830615.382 8        48.260          52.949
        52.608
  24233364.891 5  24233365.503 6  24233365.020 7 127347190.75205  99231580.71805
  95096929.07407  24233364.668 5  24233364.841 5        35.219          30.068
        42.036
  20897662.422 8  20897663.726 8  20897661.106 8 109817955.93808  85572435.68109
  82006912.28408  20897661.743 9  20897663.007 9        49.774          54.839
        53.157
  22968582.635 7  22968582.534 7  22968580.028 7 120700730.59307  94052528.98307
  90133647.11407  22968582.050 7  22968582.889 7        43.494          43.786
        46.855
  23037322.338 6  23037320.754 7  23037323.679 7 121061934.01906  94333968.41604
  90403401.39107  23037322.039 4  23037320.199 4        41.795          29.498
        46.482
  20872382.944 7                                 109685141.78207  85468938.55907
                  20872381.728 7  20872379.732 7        47.927          42.861

  22295305.927 7                                 117162624.80807  91295544.17705
                  22295304.564 5  22295301.997 5        46.149          35.914

  25203321.045 5  25203322.118 6  25203321.154 6 132444349.96405 103203391.60104
  98903248.22706  25203320.715 4  25203321.789 4        31.683          25.383
        40.813
  23212121.107 6  23212122.191 7  23212120.590 7 121980534.64906  95049761.15207
  91089360.22407  23212120.423 7  23212121.684 7        41.771          42.840
        46.586
  23564126.507 6                                 123830317.21206  96491141.56904
                  23564125.604 4  23564123.873 4        40.524          25.865

  22343846.935 7  22343847.758 7  22343845.356 7 117417717.44307  91494333.18908
  87682062.99307  22343846.645 8  22343846.940 8        47.198          48.950
        47.760
  22407096.797 7  22407100.106 6                 119568582.67507  92997808.68006
                                                        46.016          41.344

  19690847.193 8  19690850.113 8                 105406666.52408  81982978.17008
                                                        52.735          49.786

  20913965.935 8  20913969.603 7                 111993353.88108  87105934.90607
                                                        50.497          47.585

  23737892.405 6  23737896.475 6                 126759027.98106  98590331.50606
                                                        40.994          41.206

  22673530.199 7                                 120862657.09807
                                                        42.980

  24176547.544 5  24176551.674 6                 129373595.43805 100623941.21006
                                                        33.042          40.296

  20281641.680 8  20281645.538 8                 108264809.12708  84205995.98308
                                                        51.634          49.514

  19445352.618 7  19445355.360 7                 104019640.75307  80904110.83507
                                                        42.354          46.833

  23299483.435 5  23299488.941 6                 124592794.93505  96905534.33106
                                                        33.826          38.444
