     2.11           OBSERVATION DATA    M                   RINEX VERSION / TYPE
Linux 2.4.21-27.ELsmp|Opteron|gcc|Linux 64|=+               COMMENT
BIT 2 OF LLI FLAGS DATA COLLECTED UNDER A/S CONDITION       COMMENT
Forced Modulo Decimation to 30 seconds                      COMMENT
------------------------------------------------------------COMMENT
AGRS.NL - Active GPS Reference System for the Netherlands   COMMENT
E-mail: H.vanderMarel@tudelft.nl                            COMMENT
------------------------------------------------------------COMMENT
The coordinates in the RINEX header are the adopted officialCOMMENT
national coordinates in the system ETRS89/ETRF2000.         COMMENT
SNR is mapped to RINEX snr flag value [0-9]                 COMMENT
L1 & L2: min(max(int(snr_dBHz/6), 0), 9)                    COMMENT
pseudorange smoothing corrections not applied               COMMENT
rx serial #: 323-0386                                       COMMENT
HEADER CHANGED BY EPN CB ON 2022-03-11                      COMMENT
TO BE CONFORM WITH THE INFORMATION IN                       COMMENT
ftp://epncb.oma.be/pub/station/log/duth.log                 COMMENT
                                                            COMMENT
SNR is mapped to RINEX snr flag value [1-9]                 COMMENT
LX:     < 12dBHz -> 1; 12-17dBHz -> 2; 18-23dBHz -> 3       COMMENT
24-29dBHz -> 4; 30-35dBHz -> 5; 36-41dBHz -> 6              COMMENT
42-47dBHz -> 7; 48-53dBHz -> 8; >= 54dBHz -> 9              COMMENT
Product                                                     COMMENT
rustrnx-0.8.0                FILE MERGE          20221108 090514 UTCCOMMENT
teqc  2019Feb25     Unknown             20210102 00:01:40UTCPGM / RUN BY / DATE
H. VAN DER MAREL    AGRS.NL (KAD,MD,TUD)                    OBSERVER / AGENCY
DELFT-16                                                    MARKER NAME
13502M004                                                   MARKER NUMBER
0220314044          TRM29659.00     UNAV                    ANT # / TYPE
        0.0500        0.0000        0.0000                  ANTENNA: DELTA H/E/N
323-0386            TPS ODYSSEY_E       3.5 Feb,01,2019 p5  REC # / TYPE / VERS
    30.000                                                  INTERVAL
    15    L1    L2    C1    P2    P1    S1    S2   C1C   L1C# / TYPES OF OBSERV
         D1C   S1C   C2P   L2P   D2P   S2P                  # / TYPES OF OBSERV
    18                                                      LEAP SECONDS
                                                            END OF HEADER
 21  1  1  0  0  0.0000000  0 20R01R02G07G08R09G10G13G15R15G16R16R17
                                G18R18G20G21G23R24G26G27
 116954721.816 7  90964809.026 6  21878794.287    21878798.089    21878794.473  
        42.000          39.000                                                  
                                                                                
 113907865.790 8  88595032.353 7  21346285.819    21346288.923    21346285.443  
        49.000          46.000                                                  
                                                                                
 126298057.858 6  98414080.64743  24033720.416    24033721.351    24033719.353  
        40.000          22.0004                                                 
                                                                                
 114160130.658 7  88955964.55647  21723948.105    21723953.153    21723947.155  
        46.000          47.0004                                                 
                                                                                
 120184930.156 7  93477190.884 7  22506776.986    22506777.899    22506777.465  
        44.000          43.000                                                  
                                                                                
 112144051.840 8  87384999.71448  21340302.567    21340307.619    21340301.864  
        52.000          52.0004                                                 
                                                                                
 131399268.954 6 102389055.31242  25004448.492    25004450.593    25004447.809  
        36.000          12.0004                                                 
                                                                                
 126812563.577 6  98815006.75044  24131624.962    24131627.813    24131624.907  
        38.000          29.0004                                                 
                                                                                
 118516772.306 7  92179732.837 7  22178802.374    22178804.901    22178802.684  
        45.000          42.000                                                  
                                                                                
 113556669.792 7  88485725.93146  21609114.743    21609116.936    21609113.593  
        47.000          38.0004                                                 
                                                                                
 110150054.052 7  85672270.182 7  20620317.569    20620319.227    20620317.319  
        46.000          42.000                                                  
                                                                                
 104344364.269 8  81156754.225 8  19499235.584    19499235.915    19499235.267  
        52.000          51.000                                                  
                                                                                
 121443586.995 6  94631394.73544  23109944.474    23109947.055    23109944.139  
        40.000          28.0004                                                 
                                                                                
 106844822.639 8  83101546.155 8  20015628.375    20015631.390    20015628.486  
        53.000          50.000                                                  
                                                                                
 111582858.305 8  86947705.90746  21233509.912    21233511.727    21233508.599  
        49.000          37.0004                                                 
                                                                                
 123948324.318 6  96583131.80443  23586581.658    23586584.420    23586580.391  
        39.000          20.0004                                                 
                                                                                
 111982965.979 8  87259475.17746  21309646.971    21309649.924    21309646.771  
        48.000          37.0004                                                 
                                                                                
 123664246.260 6  96183328.899 6  23125836.575    23125839.071    23125836.244  
        41.000          40.000                                                  
                                                                                
 125184221.815 6  97546158.89945  23821762.469    23821768.749    23821762.040  
        40.000          35.0004                                                 
                                                                                
 105271498.527 8  82029766.96649  20032495.677    20032500.289    20032495.191  
        53.000          56.0004                                                 
                                                                                
 21  1  1  0  0 30.0000000  0 20R01R02G07G08R09G10G13G15R15G16R16R17
                                G18R18G20G21G23R24G26G27
 116971765.651 7  90978065.341 6  21881983.733    21881986.213    21881983.163  
        42.000          39.000                                                  
                                                                                
 113784346.640 8  88498961.925 7  21323137.795    21323141.273    21323137.984  
        49.000          46.000                                                  
                                                                                
 126282454.570 6  98401922.22443  24030750.580    24030752.522    24030750.489  
        39.000          22.0004                                                 
                                                                                
 114050375.152 7  88870440.79347  21703062.163    21703067.314    21703061.397  
        47.000          47.0004                                                 
                                                                                
 120062488.238 7  93381958.277 7  22483848.608    22483848.793    22483847.799  
        44.000          43.000                                                  
                                                                                
 112060701.507 8  87320051.41948  21324441.400    21324446.427    21324440.822  
        50.000          53.0004                                                 
                                                                                
 131386778.390 6 102379322.35541  25002073.211    25002073.178    25002070.920  
        37.000          11.0004                                                 
                                                                                
 126776372.938 6  98786806.25744  24124738.057    24124741.296    24124737.826  
        36.000          29.0004                                                 
                                                                                
 118606651.735 7  92249639.051 7  22195622.723    22195624.811    22195622.291  
        46.000          43.000                                                  
                                                                                
 113605326.339 8  88523640.11346  21618373.485    21618375.988    21618372.590  
        48.000          37.0004                                                 
                                                                                
 110140961.523 7  85665198.199 7  20618615.200    20618616.925    20618615.133  
        46.000          42.000                                                  
                                                                                
 104350689.351 8  81161673.724 8  19500417.645    19500417.946    19500417.378  
        52.000          50.000                                                  
                                                                                
 121505620.191 7  94679732.30044  23121748.945    23121751.795    23121748.378  
        42.000          28.0004                                                 
                                                                                
 106753353.463 8  83030403.463 8  19998493.489    19998496.049    19998493.333  
        53.000          49.000                                                  
                                                                                
 111576725.337 8  86942926.97146  21232342.681    21232344.757    21232341.519  
        48.000          37.0004                                                 
                                                                                
 123827565.796 6  96489034.26043  23563601.617    23563604.133    23563600.555  
        39.000          20.0004                                                 
                                                                                
 111966699.068 7  87246799.66946  21306551.543    21306554.461    21306551.303  
        46.000          38.0004                                                 
                                                                                
 123733637.895 6  96237300.116 6  23138812.780    23138815.942    23138813.479  
        41.000          39.000                                                  
                                                                                
 125261073.448 6  97606043.26845  23836386.907    23836393.122    23836386.335  
        38.000          35.0004                                                 
                                                                                
 105228685.775 8  81996406.36549  20024349.016    20024353.302    20024348.211  
        53.000          57.0004                                                 
                                                                                
 21  1  1  0  1  0.0000000  0 20R01R02G07G08R09G10G13G15R15G16R16R17
                                G18R18G20G21G23R24G26G27
 116989557.807 7  90991903.697 6  21885311.397    21885315.075    21885311.490  
        42.000          39.000                                                  
                                                                                
 113661403.664 8  88403339.633 7  21300098.037    21300101.842    21300098.586  
        49.000          46.000                                                  
                                                                                
 126267372.371 6  98390169.86343  24027880.908    24027881.918    24027879.896  
        40.000          22.0004                                                 
                                                                                
 113940878.600 7  88785118.81047  21682225.346    21682230.719    21682224.950  
        46.000          47.0004                                                 
                                                                                
 119940631.105 7  93287180.473 7  22461029.215    22461028.349    22461028.981  
        44.000          42.000                                                  
                                                                                
 111977879.803 8  87255515.04148  21308680.905    21308685.922    21308680.328  
        51.000          53.0004                                                 
                                                                                
 131374853.466 6 102370030.20842  24999803.342    24999804.985    24999803.569  
        36.000          12.0004                                                 
                                                                                
 126740781.514 6  98759072.69544  24117965.362    24117968.209    24117964.906  
        38.000          29.0004                                                 
                                                                                
 118696815.992 7  92319766.796 7  22212494.650    22212497.561    22212495.399  
        46.000          43.000                                                  
                                                                                
 113654392.158 8  88561873.21646  21627710.355    21627712.904    21627709.440  
        48.000          37.0004                                                 
                                                                                
 110132684.584 7  85658760.560 7  20617066.147    20617067.504    20617065.779  
        46.000          43.000                                                  
                                                                                
 104357398.636 8  81166892.050 8  19501671.338    19501671.634    19501671.112  
        53.000          50.000                                                  
                                                                                
 121567789.421 6  94728175.85344  23133579.286    23133582.109    23133578.996  
        41.000          27.0004                                                 
                                                                                
 106662240.699 8  82959537.980 8  19981424.756    19981427.632    19981424.664  
        53.000          50.000                                                  
                                                                                
 111571159.111 8  86938589.65246  21231283.322    21231285.530    21231282.289  
        49.000          37.0004                                                 
                                                                                
 123706996.679 6  96395084.31943  23540659.034    23540661.741    23540657.573  
        39.000          20.0004                                                 
                                                                                
 111951042.015 8  87234599.37346  21303572.357    21303575.010    21303571.950  
        48.000          37.0004                                                 
                                                                                
 123803096.383 6  96291323.331 6  23151801.676    23151805.086    23151802.503  
        41.000          40.000                                                  
                                                                                
 125338036.190 6  97666014.22145  23851032.508    23851038.707    23851031.993  
        39.000          35.0004                                                 
                                                                                
 105186320.332 8  81963394.31949  20016287.048    20016291.406    20016286.310  
        53.000          56.0004                                                 
                                                                                
 21  1  1  0  1 30.0000000  0 20R01R02G07G08R09G10G13G15R15G16R16R17
                                G18R18G20G21G23R24G26G27
 117008096.799 6  91006322.933 6  21888779.532    21888782.956    21888779.373  
        41.000          39.000                                                  
                                                                                
 113539041.490 8  88308169.067 7  21277168.402    21277171.362    21277167.987  
        49.000          46.000                                                  
                                                                                
 126252810.509 6  98378822.95543  24025109.315    24025110.938    24025108.853  
        39.000          21.0004                                                 
                                                                                
 113831643.640 7  88700000.66447  21661439.183    21661443.983    21661438.247  
        47.000          47.0004                                                 
                                                                                
 119819363.005 7  93192860.811 7  22438318.163    22438318.985    22438318.759  
        44.000          43.000                                                  
                                                                                
 111895589.262 8  87191392.55848  21293021.502    21293026.612    21293020.819  
        51.000          53.0004                                                 
                                                                                
 131363494.327 6 102361178.93941  24997641.211    24997640.568    24997640.891  
        36.000          11.0004                                                 
                                                                                
 126705790.538 6  98731807.01045  24111307.440    24111310.133    24111306.900  
        39.000          30.0004                                                 
                                                                                
 118787261.221 7  92390113.085 7  22229420.720    22229423.519    22229420.740  
        46.000          43.000                                                  
                                                                                
 113703865.153 8  88600423.59646  21637124.819    21637127.249    21637123.797  
        48.000          37.0004                                                 
                                                                                
 110125222.108 7  85652956.395 7  20615669.660    20615670.586    20615668.839  
        46.000          43.000                                                  
                                                                                
 104364491.733 9  81172408.898 8  19502996.862    19502997.099    19502996.778  
        54.000          50.000                                                  
                                                                                
 121630093.704 6  94776724.63144  23145435.539    23145437.956    23145435.146  
        41.000          27.0004                                                 
                                                                                
 106571485.890 8  82888950.912 8  19964422.912    19964426.058    19964423.178  
        52.000          50.000                                                  
                                                                                
 111566158.558 7  86934693.12646  21230331.916    21230334.019    21230330.817  
        47.000          37.0004                                                 
                                                                                
 123586618.392 6  96301283.07543  23517751.001    23517753.387    23517750.613  
        38.000          20.0004                                                 
                                                                                
 111935994.607 8  87222874.13346  21300708.956    21300711.588    21300708.523  
        48.000          37.0004                                                 
                                                                                
 123872621.931 6  96345398.718 6  23164804.646    23164806.268    23164804.531  
        41.000          40.000                                                  
                                                                                
 125415108.358 6  97726070.44345  23865699.179    23865705.090    23865698.452  
        39.000          35.0004                                                 
                                                                                
 105144403.430 8  81930731.79149  20008310.542    20008314.881    20008309.782  
        52.000          56.0004                                                 
                                                                                
 21  1  1  0  2  0.0000000  0 20R01R02G07G08R09G10G13G15R15G16R16R17
                                G18R18G20G21G23R24G26G27
 118629941.131 6  92267757.416 6  22192179.512    22192183.029    22192179.315  
        41.000          39.000                                                  
                                                                                
 115017018.005 8  89457706.382 7  21554139.921    21554143.433    21554139.926  
        49.000          46.000                                                  
                                                                                
 127814188.268 6  99595480.95443  24322229.087    24322231.132    24322228.841  
        39.000          21.0004                                                 
                                                                                
 115298094.693 7  89842689.79847  21940495.141    21940500.296    21940494.678  
        46.000          47.0004                                                 
                                                                                
 121299566.414 7  94344130.109 7  22715513.360    22715514.204    22715512.810  
        44.000          44.000                                                  
                                                                                
 113389253.626 8  88355286.88648  21577256.225    21577261.502    21577255.760  
        51.000          53.0004                                                 
                                                                                
 132928120.072 5 103580367.84041  25295378.923    25295380.564    25295381.028  
        35.000          11.0004                                                 
                                                                                
 128246821.368 6  99932610.27645  24404555.537    24404558.173    24404555.414  
        38.000          30.0004                                                 
                                                                                
 120479979.819 7  93706671.987 7  22546189.455    22546192.418    22546190.160  
        45.000          43.000                                                  
                                                                                
 115329161.375 7  89866888.17846  21946408.164    21946410.849    21946407.384  
        46.000          37.0004                                                 
                                                                                
 111720010.126 7  86893347.060 7  20914216.803    20914218.120    20914216.654  
        45.000          43.000                                                  
                                                                                
 105976217.149 8  82425973.105 8  19804186.402    19804186.587    19804186.051  
        53.000          50.000                                                  
                                                                                
 123267949.051 6  96052975.54444  23457109.169    23457111.856    23457108.235  
        40.000          27.0004                                                 
                                                                                
 108081405.136 8  84063332.547 8  20247281.832    20247284.973    20247281.940  
        53.000          50.000                                                  
                                                                                
 113137142.408 8  88158836.38546  21529280.386    21529282.273    21529278.981  
        48.000          36.0004                                                 
                                                                                
 125041855.521 6  97435234.10143  23794673.867    23794676.344    23794672.877  
        38.000          20.0004                                                 
                                                                                
 113496976.151 8  88439223.39246  21597753.751    21597756.499    21597753.373  
        49.000          38.0004                                                 
                                                                                
 125545335.540 6  97646398.141 6  23477609.816    23477611.994    23477610.617  
        40.000          39.000                                                  
                                                                                
 127067704.665 6  99013807.80945  24180177.389    24180183.882    24180177.082  
        39.000          35.0004                                                 
                                                                                
 106678356.650 8  83126020.01249  20300212.153    20300216.478    20300211.432  
        53.000          56.0004                                                 
                                                                                
 21  1  1  0  2 30.0000000  0 20R01R02G07G08R09G10G13G15R15G16R16R17
                                G18R18G20G21G23R24G26G27
 118649958.049 7  92283326.133 6  22195923.781    22195927.032    22195923.277  
        42.000          39.000                                                  
                                                                                
 114895822.003 8  89363442.846 7  21531428.145    21531431.199    21531427.910  
        50.000          46.000                                                  
                                                                                
 127800656.941 6  99584937.05043  24319655.154    24319656.957    24319654.492  
        38.000          22.0004                                                 
                                                                                
 115189379.684 7  89757976.81348  21919807.668    21919812.555    21919806.942  
        45.000          48.0004                                                 
                                                                                
 121179480.177 7  94250729.680 7  22693025.178    22693025.557    22693024.471  
        44.000          44.000                                                  
                                                                                
 113308022.340 8  88291989.79948  21561798.855    21561803.696    21561798.027  
        52.000          53.0004                                                 
                                                                                
 132917882.234 5 103572390.33241  25293430.129    25293431.518    25293427.819  
        34.000           9.0004                                                 
                                                                                
 128213025.288 6  99906275.68745  24398125.639    24398127.446    24398124.262  
        40.000          31.0004                                                 
                                                                                
 120570966.597 7  93777439.476 7  22563216.925    22563219.491    22563217.284  
        46.000          43.000                                                  
                                                                                
 115379434.974 8  89906062.40346  21955975.435    21955977.579    21955974.198  
        48.000          37.0004                                                 
                                                                                
 111714165.252 7  86888801.024 7  20913122.685    20913124.183    20913122.630  
        46.000          43.000                                                  
                                                                                
 105984067.776 8  82432079.135 8  19805653.968    19805653.869    19805653.349  
        53.000          50.000                                                  
                                                                                
 123330511.284 6  96101725.32544  23469014.693    23469016.659    23469013.901  
        41.000          27.0004                                                 
                                                                                
 107991361.311 8  83993298.468 8  20230413.937    20230416.740    20230413.732  
        52.000          50.000                                                  
                                                                                
 113133262.524 7  88155813.10646  21528541.663    21528543.877    21528540.693  
        47.000          37.0004                                                 
                                                                                
 124921854.553 6  97341726.88843  23771838.395    23771840.300    23771837.143  
        39.000          20.0004                                                 
                                                                                
 113483138.205 7  88428440.58346  21595120.665    21595123.188    21595120.050  
        46.000          37.0004                                                 
                                                                                
 125614984.269 6  97700569.319 6  23490635.076    23490637.016    23490635.542  
        40.000          40.000                                                  
                                                                                
 127144981.261 6  99074023.32145  24194882.615    24194888.957    24194882.180  
        38.000          35.0004                                                 
                                                                                
 106637331.214 8  83094052.13849  20292405.210    20292409.590    20292404.579  
        53.000          56.0004                                                 
                                                                                
 21  1  1  0  3  0.0000000  0 20R01R02G07G08R09G10G13G15R15G16R16R17
                                G18R18G20G21G23R24G26G27
 118670713.093 7  92299468.954 6  22199806.501    22199810.315    22199806.519  
        42.000          39.000                                                  
                                                                                
 114775217.837 8  89269639.635 7  21508826.894    21508830.116    21508826.663  
        50.000          47.000                                                  
                                                                                
 127787641.437 6  99574795.05843  24317177.962    24317179.749    24317177.567  
        39.000          21.0004                                                 
                                                                                
 115080929.416 7  89673470.11647  21899170.009    21899175.157    21899169.584  
        46.000          47.0004                                                 
                                                                                
 121059992.616 7  94157794.896 7  22670648.673    22670649.280    22670649.025  
        44.000          43.000                                                  
                                                                                
 113227325.420 8  88229109.10248  21546442.492    21546447.624    21546441.908  
        52.000          53.0004                                                 
                                                                                
 132908206.494 5 103564850.82641  25291587.511    25291591.571    25291588.461  
        34.000          11.0004                                                 
                                                                                
 128179829.530 6  99880408.87345  24391807.594    24391810.032    24391806.888  
        39.000          30.0004                                                 
                                                                                
 120662220.460 7  93848414.683 7  22580293.934    22580296.515    22580294.021  
        45.000          43.000                                                  
                                                                                
 115430108.006 7  89945547.87446  21965618.102    21965620.295    21965617.154  
        47.000          37.0004                                                 
                                                                                
 111709129.382 7  86884884.224 7  20912180.088    20912181.435    20912179.815  
        45.000          42.000                                                  
                                                                                
 105992298.596 8  82438480.877 8  19807191.447    19807191.889    19807191.297  
        53.000          50.000                                                  
                                                                                
 123393202.589 6  96150575.68544  23480943.864    23480946.375    23480943.350  
        41.000          27.0004                                                 
                                                                                
 107901676.322 8  83923543.485 8  20213612.724    20213615.735    20213612.624  
        53.000          50.000                                                  
                                                                                
 113129943.635 8  88153226.96346  21527910.167    21527912.258    21527908.991  
        48.000          36.0004                                                 
                                                                                
 124802045.702 6  97248369.34743  23749040.335    23749041.562    23749038.365  
        39.000          20.0004                                                 
                                                                                
 113469906.136 7  88418129.88846  21592602.287    21592605.233    21592602.096  
        47.000          37.0004                                                 
                                                                                
 125684695.851 6  97754789.396 6  23503671.583    23503673.754    23503671.406  
        40.000          40.000                                                  
                                                                                
 127222359.020 6  99134317.65645  24209607.523    24209613.581    24209606.840  
        39.000          34.0004                                                 
                                                                                
 106596754.813 8  83062434.16949  20284683.683    20284688.138    20284683.134  
        53.000          56.0004                                                 
                                                                                
 21  1  1  0  3 30.0000000  0 20R01R02G07G08R09G10G13G15R15G16R16R17
                                G18R18G20G21G23R24G26G27
 118692204.864 7  92316184.787 6  22203826.412    22203830.350    22203826.672  
        42.000          39.000                                                  
                                                                                
 114655210.259 8  89176300.435 7  21486337.095    21486340.878    21486337.430  
        50.000          46.000                                                  
                                                                                
 127775141.621 6  99565054.93643  24314798.792    24314800.873    24314799.499  
        40.000          22.0004                                                 
                                                                                
 114972746.329 7  89589171.60948  21878583.628    21878588.716    21878583.115  
        46.000          48.0004                                                 
                                                                                
 120941108.259 7  94065329.284 7  22648385.790    22648386.303    22648385.348  
        44.000          44.000                                                  
                                                                                
 113147165.363 8  88166646.73748  21531188.572    21531193.682    21531187.873  
        52.000          53.0004                                                 
                                                                                
 132899093.064 5 103557749.37541  25289854.267    25289858.202    25289853.539  
        33.000          11.0004                                                 
                                                                                
 128147235.565 6  99855011.00845  24385604.585    24385607.433    24385603.625  
        36.000          30.0004                                                 
                                                                                
 120753737.952 7  93919594.921 7  22597419.019    22597422.755    22597420.065  
        44.000          43.000                                                  
                                                                                
 115481179.493 7  89985343.83146  21975336.720    21975338.842    21975335.655  
        47.000          37.0004                                                 
                                                                                
 111704902.084 7  86881596.318 7  20911388.442    20911390.105    20911388.318  
        45.000          43.000                                                  
                                                                                
 106000909.676 8  82445178.373 8  19808800.472    19808801.044    19808800.518  
        52.000          50.000                                                  
                                                                                
 123456022.344 6  96199526.10844  23492897.617    23492901.007    23492897.786  
        40.000          26.0004                                                 
                                                                                
 107812352.006 8  83854069.028 8  20196879.629    20196882.471    20196879.503  
        53.000          51.000                                                  
                                                                                
 113127185.247 8  88151077.57746  21527385.184    21527387.326    21527384.047  
        49.000          36.0004                                                 
                                                                                
 124682431.007 6  97155163.13943  23726278.189    23726279.154    23726276.321  
        40.000          21.0004                                                 
                                                                                
 113457280.090 7  88408291.42146  21590199.640    21590202.491    21590199.299  
        46.000          37.0004                                                 
                                                                                
 125754470.221 6  97809058.300 6  23516718.907    23516722.040    23516719.611  
        40.000          40.000                                                  
                                                                                
 127299836.621 6  99194689.80845  24224350.907    24224356.604    24224350.352  
        39.000          34.0004                                                 
                                                                                
 106556629.081 8  83031167.35949  20277047.892    20277052.448    20277047.385  
        53.000          56.0004                                                 
                                                                                
 21  1  1  0  4  0.0000000  0 20R01R02G07G08R09G10G13G15R15G16R16R17
                                G18R18G20G21G23R24G26G27
 118714431.589 7  92333472.268 6  22207985.446    22207988.145    22207985.347  
        42.000          39.000                                                  
                                                                                
 114535804.673 8  89083429.453 7  21463960.575    21463964.406    21463960.790  
        50.000          47.000                                                  
                                                                                
 127763157.691 6  99555716.80043  24312519.043    24312520.876    24312518.511  
        40.000          22.0004                                                 
                                                                                
 114864833.453 7  89505083.65148  21858048.531    21858053.563    21858047.886  
        44.000          48.0004                                                 
                                                                                
 120822832.176 7  93973336.767 7  22626235.510    22626236.362    22626236.087  
        44.000          43.000                                                  
                                                                                
 113067544.841 8  88104604.79548  21516037.197    21516042.229    21516036.417  
        52.000          53.0004                                                 
                                                                                
 132890542.048 5 103551086.25241  25288228.810    25288229.702    25288225.934  
        34.000          10.0004                                                 
                                                                                
 128115244.991 6  99830083.30245  24379517.409    24379520.201    24379516.595  
        39.000          30.0004                                                 
                                                                                
 120845516.004 7  93990977.821 7  22614594.620    22614597.880    22614595.018  
        44.000          43.000                                                  
                                                                                
 115532648.226 7  90025449.33546  21985130.879    21985133.000    21985129.917  
        47.000          37.0004                                                 
                                                                                
 111701482.944 7  86878936.973 7  20910748.157    20910750.050    20910748.006  
        45.000          42.000                                                  
                                                                                
 106009901.179 8  82452171.755 8  19810480.927    19810481.268    19810480.799  
        52.000          50.000                                                  
                                                                                
 123518970.190 6  96248576.34244  23504876.528    23504879.257    23504876.492  
        41.000          26.0004                                                 
                                                                                
 107723390.515 9  83784876.764 8  20180213.888    20180217.044    20180213.927  
        54.000          51.000                                                  
                                                                                
 113124987.988 7  88149365.43246  21526967.248    21526969.238    21526965.978  
        46.000          36.0004                                                 
                                                                                
 124563012.429 6  97062109.72643  23703552.735    23703555.424    23703551.895  
        39.000          21.0004                                                 
                                                                                
 113445260.349 8  88398925.40046  21587912.439    21587915.242    21587912.072  
        48.000          37.0004                                                 
                                                                                
 125824307.941 6  97863376.488 6  23529780.858    23529781.894    23529780.584  
        41.000          40.000                                                  
                                                                                
 127377412.928 6  99255138.87745  24239113.205    24239119.144    24239112.811  
        39.000          34.0004                                                 
                                                                                
 106516955.711 8  83000253.03749  20269498.400    20269502.844    20269497.770  
        52.000          57.0004                                                 
                                                                                
 21  1  1  0  4 30.0000000  0 20R01R02G07G08R09G10G13G15R15G16R16R17
                                G18R18G20G21G23R24G26G27
 118737390.350 7  92351329.109 6  22212280.597    22212283.046    22212280.077  
        42.000          39.000                                                  
                                                                                
 114417004.026 8  88991028.980 7  21441697.329    21441701.073    21441697.638  
        49.000          47.000                                                  
                                                                                
 127751687.500 6  99546778.98643  24310336.520    24310337.682    24310336.281  
        40.000          21.0004                                                 
                                                                                
 114757191.562 7  89421206.85147  21837565.021    21837570.062    21837564.292  
        46.000          47.0004                                                 
                                                                                
 120705166.960 7  93881819.372 7  22604200.272    22604201.933    22604200.819  
        44.000          44.000                                                  
                                                                                
 112988464.365 8  88042983.66248  21500988.790    21500993.702    21500988.023  
        52.000          53.0004                                                 
                                                                                
 132882551.810 5 103544860.08841  25286708.656    25286709.710    25286707.833  
        34.000          11.0004                                                 
                                                                                
 128083857.122 6  99805625.22645  24373544.761    24373547.402    24373543.910  
        36.000          30.0004                                                 
                                                                                
 120937549.437 7  94062559.355 7  22631818.109    22631820.682    22631817.975  
        44.000          43.000                                                  
                                                                                
 115584511.227 8  90065862.05746  21995000.032    21995002.128    21994999.181  
        48.000          37.0004                                                 
                                                                                
 111698869.510 7  86876904.275 7  20910259.931    20910261.033    20910258.849  
        45.000          43.000                                                  
                                                                                
 106019271.441 8  82459459.730 8  19812232.311    19812232.337    19812232.041  
        53.000          50.000                                                  
                                                                                
 123582043.617 6  96297724.46844  23516879.289    23516881.177    23516878.888  
        41.000          26.0004                                                 
                                                                                
 107634791.783 8  83715966.646 8  20163616.298    20163619.408    20163616.463  
        53.000          50.000                                                  
                                                                                
 113123349.560 8  88148088.74146  21526655.529    21526657.355    21526654.252  
        49.000          36.0004                                                 
                                                                                
 124443789.786 6  96969209.00143  23680865.925    23680868.183    23680864.740  
        40.000          21.0004                                                 
                                                                                
 113433845.062 8  88390030.37746  21585740.097    21585742.749    21585739.807  
        49.000          37.0004                                                 
                                                                                
 125894207.005 6  97917742.396 6  23542851.410    23542853.221    23542851.568  
        41.000          40.000                                                  
                                                                                
 127455084.703 6  99315662.33045  24253893.459    24253899.572    24253893.259  
        39.000          33.0004                                                 
                                                                                
 106477734.411 8  82969690.97749  20262034.833    20262039.247    20262034.190  
        53.000          56.0004                                                 
                                                                                
 21  1  1  0  5  0.0000000  0 20R01R02G07G08R09G10G13G15R15G16R16R17
                                G18R18G20G21G23R24G26G27
 118761077.056 7  92369752.135 6  22216711.149    22216714.037    22216710.920  
        42.000          38.000                                                  
                                                                                
 114298810.729 8  88899100.891 7  21419548.230    21419551.619    21419548.154  
        50.000          47.000                                                  
                                                                                
 127740728.464 6  99538239.47243  24308250.172    24308252.730    24308250.359  
        39.000          21.0004                                                 
                                                                                
 114649821.033 7  89337541.50048  21817132.980    21817138.135    21817132.245  
        47.000          48.0004                                                 
                                                                                
 120588115.002 7  93790778.946 7  22582280.633    22582281.545    22582280.792  
        45.000          44.000                                                  
                                                                                
 112909924.157 8  87981783.51748  21486042.952    21486047.994    21486042.299  
        51.000          52.0004                                                 
                                                                                
 132875120.032 6 103539069.07741  25285293.190    25285294.805    25285293.996  
        36.000          11.0004                                                 
                                                                                
 128053070.926 6  99781635.99745  24367685.796    24367689.614    24367685.534  
        37.000          30.0004                                                 
                                                                                
 121029832.663 7  94134335.174 7  22649088.526    22649090.233    22649087.255  
        44.000          43.000                                                  
                                                                                
 115636764.617 8  90106578.98446  22004943.426    22004945.555    22004942.683  
        48.000          36.0004                                                 
                                                                                
 111697058.745 7  86875495.892 7  20909919.546    20909921.967    20909919.774  
        45.000          43.000                                                  
                                                                                
 106029018.539 9  82467040.798 8  19814053.434    19814053.900    19814053.171  
        54.000          50.000                                                  
                                                                                
 123645239.864 6  96346968.27544  23528905.420    23528907.658    23528904.748  
        41.000          26.0004                                                 
                                                                                
 107546554.873 8  83647337.939 8  20147086.812    20147089.594    20147086.690  
        53.000          50.000                                                  
                                                                                
 113122267.404 8  88147245.50446  21526449.892    21526451.384    21526448.390  
        48.000          36.0004                                                 
                                                                                
 124324762.444 6  96876460.46343  23658215.788    23658217.313    23658214.586  
        41.000          22.0004                                                 
                                                                                
 113423032.060 7  88381604.67546  21583682.445    21583685.203    21583682.283  
        46.000          37.0004                                                 
                                                                                
 125964165.147 7  97972154.252 6  23555935.094    23555936.282    23555934.760  
        42.000          41.000                                                  
                                                                                
 127532848.308 6  99376257.33045  24268691.585    24268697.471    24268691.013  
        38.000          33.0004                                                 
                                                                                
 106438964.470 8  82939480.62649  20254657.221    20254661.583    20254656.522  
        53.000          56.0004                                                 
                                                                                
 21  1  1  0  5 30.0000000  0 20R01R02G07G08R09G10G13G15R15G16R16R17
                                G18R18G20G21G23R24G26G27
 118785490.210 7  92388740.174 6  22221278.787    22221281.001    22221277.856  
        42.000          39.000                                                  
                                                                                
 114181229.665 8  88807648.976 7  21397513.942    21397516.808    21397513.658  
        49.000          47.000                                                  
                                                                                
 127730280.659 6  99530098.32343  24306261.838    24306264.024    24306261.887  
        39.000          21.0004                                                 
                                                                                
 114542724.588 7  89254089.71347  21796753.086    21796758.295    21796752.428  
        47.000          47.0004                                                 
                                                                                
 120471680.759 7  93700218.964 7  22560475.951    22560477.755    22560476.543  
        45.000          44.000                                                  
                                                                                
 112831926.905 8  87921006.45248  21471200.554    21471205.590    21471199.950  
        51.000          53.0004                                                 
                                                                                
 132868247.205 5 103533713.62741  25283985.343    25283987.031    25283984.848  
        34.000          11.0004                                                 
                                                                                
 128022887.977 6  99758116.82345  24361942.469    24361944.496    24361942.120  
        38.000          30.0004                                                 
                                                                                
 121122362.907 7  94206303.121 7  22666403.023    22666406.232    22666402.956  
        44.000          43.000                                                  
                                                                                
 115689407.593 7  90147599.48146  22014961.204    22014963.401    22014960.130  
        47.000          36.0004                                                 
                                                                                
