     3.04           OBSERVATION DATA    M: MIXED            RINEX VERSION / TYPE
HEADER CHANGED BY EPN CB ON 2022-01-16                      COMMENT
TO BE CONFORM WITH THE INFORMATION IN                       COMMENT
ftp://epncb.oma.be/pub/station/log/alac.log                 COMMENT
                                                            COMMENT
Mdb2Rinex 4.97.35L                      20220110 023216 UTC PGM / RUN BY / DATE
gfzrnx-1.15-8044    HEADER EDIT         20220110 023217 UTC COMMENT
ALAC                                                        MARKER NAME
13433M001                                                   MARKER NUMBER
IGN-E                                                       OBSERVER / AGENCY
1871480             LEICA GR50          4.50/7.710          REC # / TYPE / VERS
10250007            LEIAR25.R3      LEIT                    ANT # / TYPE
        3.0350        0.0000        0.0000                  ANTENNA: DELTA H/E/N
  5009051.3860   -42072.4860  3935057.4820                  APPROX POSITION XYZ
SNR is mapped to RINEX snr flag value [1-9]                 COMMENT
LX:     < 12dBHz -> 1; 12-17dBHz -> 2; 18-23dBHz -> 3       COMMENT
       24-29dBHz -> 4; 30-35dBHz -> 5; 36-41dBHz -> 6       COMMENT
       42-47dBHz -> 7; 48-53dBHz -> 8; >= 54dBHz -> 9       COMMENT
G   12 C1C L1C S1C C2S L2S S2S C2W L2W S2W C5Q L5Q S5Q      SYS / # / OBS TYPES
R   12 C1C L1C S1C C2P L2P S2P C2C L2C S2C C3Q L3Q S3Q      SYS / # / OBS TYPES
E   12 C1C L1C S1C C5Q L5Q S5Q C7Q L7Q S7Q C8Q L8Q S8Q      SYS / # / OBS TYPES
C    9 C2I L2I S2I C6I L6I S6I C7I L7I S7I                  SYS / # / OBS TYPES
DBHZ                                                        SIGNAL STRENGTH UNIT
    30.000                                                  INTERVAL
  2022     1     9     0     0    0.0000000     GPS         TIME OF FIRST OBS
  2022     1     9    23    59   30.0000000     GPS         TIME OF LAST OBS
     0                                                      RCV CLOCK OFFS APPL
 23 R01  1 R02 -4 R03  5 R04  6 R05  1 R06 -4 R07  5 R08  6 GLONASS SLOT / FRQ #
    R09 -2 R10 -7 R12 -1 R13 -2 R14 -7 R15  0 R16 -1 R17  4 GLONASS SLOT / FRQ #
    R18 -3 R19  3 R20  2 R21  4 R22 -3 R23  3 R24  2        GLONASS SLOT / FRQ #
 C1C  -71.940 C1P  -71.940 C2C  -71.940 C2P  -71.940        GLONASS COD/PHS/BIS
    18    18  2185     7                                    LEAP SECONDS
                                                            END OF HEADER
> 2022 01 09 00 00  0.0000000  0 40
G01  22345079.240   117424213.48008        48.850    22345080.640    91499404.57507        46.950    22345080.580    91499412.56807        44.500    22345078.900    87686944.70808        49.550
G03  25106377.980   131934909.06607        43.000    25106381.840   102806423.66007        42.300    25106381.060   102806435.67506        37.850    25106380.680    98522827.50406        40.650
G08  20374390.760   107068179.92108        52.300    20374392.480    83429765.07708        52.950    20374391.620    83429761.07908        52.250    20374389.640    79953524.82009        54.350
G10  22464836.260   118053596.15308        52.800    22464836.760    91989838.33208        48.900    22464836.820    91989850.33008        52.700    22464834.400    88156942.76908        49.900
G14  25482797.240   133913006.25106        41.050    25482797.040   104347787.95106        40.500    25482797.220   104347792.96406        36.400    25482799.840    99999984.30606        40.750
G16  23776478.000   124946249.83007        47.950                                                    23776476.200    97360704.42006        41.700
G21  21272595.640   111788341.45808        51.750                                                    21272593.160    87107821.58807        47.750
G23  25140204.480   132112746.71607        42.900    25140203.940   102945017.02806        41.600    25140203.860   102945020.00306        38.650    25140206.580    98655682.93206        41.950
G27  20922795.580   109950073.82208        52.800    20922796.360    85675378.31308        52.350    20922795.820    85675400.31408        52.900    20922794.860    82105592.41108        53.800
G32  23629178.880   124172189.66408        50.500    23629180.440    96757557.73707        46.000    23629179.900    96757548.73508        50.450    23629178.100    92725991.31007        44.550
R01  20207718.320   108021892.15508        49.200    20207720.980    84017055.40007        43.700    20207720.080    84017060.40107        44.650
R02  22668665.500   120964368.87508        49.350    22668667.420    94083413.28907        43.000    22668667.400    94083412.28707        43.550
R08  21849258.020   117001804.29807        45.900    21849257.240    91001400.22507        44.650    21849257.080    91001404.23007        45.300
R14  22065079.340   117619290.65008        51.050    22065080.780    91481666.44207        43.000    22065081.000    91481659.45507        43.300
R15  21933521.660   117206098.42208        51.450    21933521.820    91160302.69907        44.050    21933521.860    91160306.70907        44.650
R17  21756851.360   116425337.47208        49.750    21756851.180    90553038.84307        44.300    21756851.020    90553036.84307        45.250
R23  21652002.000   115823681.99308        49.050
R24  19991637.180   106904342.07208        52.350    19991637.180    83147857.34508        48.300    19991637.120    83147836.34708        48.750
E02  27605588.160   145068366.82347        46.050    27605591.780   108330293.52607        42.450    27605590.300   111156293.16907        44.900    27605590.980   109743288.35807        46.100
E03  27452659.340   144264712.86747        47.100    27452663.160   107730169.46707        42.750    27452661.240   110540510.63007        45.650    27452662.060   109135334.55807        46.700
E05  25917950.400   136199763.89748        50.550    25917953.220   101707637.90207        47.200    25917951.880   104360875.56508        50.000    25917952.200   103034247.25208        51.000
E09  25456731.080   133776035.03748        49.000    25456733.060    99897697.40107        43.000    25456731.160   102503726.65507        45.950    25456732.780   101200712.04507        47.050
E15  24609720.200   129325035.70848        52.250    24609722.940    96573945.32308        49.650    24609721.500    99093263.40208        52.400    24609722.100    97833599.38108        53.450
E27  25684091.520   134970811.04448        51.250    25684093.400   100789893.33307        47.550    25684092.500   103419194.60608        50.250    25684092.740   102104548.48908        51.400
E30  25037690.940   131573963.95248        52.550    25037693.080    98253300.85008        49.400    25037691.760   100816426.58208        52.150    25037692.260    99534855.73408        53.250
E36  26949710.960   141621789.02148        48.850    26949714.300   105756599.19607        44.350    26949712.780   108515457.12007        47.500    26949713.620   107136024.67408        48.350
C05  39802007.240   207259525.74207        43.750    39801999.780   168415288.65306        38.250    39802003.380   160266193.83107        42.750
C06  41105304.920   214046142.15206        38.300    41105297.160   173929963.66906        38.800    41105301.900   165514026.82806        39.700
C09  41522025.540   216216077.25706        40.400    41522019.080   175693230.66105        35.100    41522023.060   167191986.32406        40.250
C16  41118108.940   214112788.44806        41.450    41118102.740   173984160.93105        34.200    41118110.520   165565587.75006        39.950
C27  21629730.020   112631742.32308        52.900    21629725.760    91522526.18908        51.350
C28  24379114.440   126948592.69808        50.250    24379110.340   103156148.50407        46.000
C30  23457040.740   122146985.00708        51.400    23457038.460    99254429.47008        48.050
C32  24157809.820   125796125.61808        50.950    24157807.560   102219677.52908        48.350
C33  25258956.540   131530051.46108        48.800    25258964.300   106878983.33107        45.900
C36  25688765.460   133768134.58807        47.000    25688766.240   108697571.70107        43.800
C39  40864936.440   212794461.51007        43.850    40864929.240   172912897.15106        39.150
C41  22775259.440   118596831.78208        52.800    22775261.180    96369669.32008        51.850
C46  25508616.280   132830053.68907        46.850    25508618.780   107935303.92707        43.600
C58  35204636.800   183319907.70407        42.250
> 2022 01 09 00 00 30.0000000  0 40
G01  22331467.880   117352685.28208        48.950    22331469.280    91443668.37607        45.950    22331469.280    91443676.36307        43.500    22331467.360    87633530.86608        49.350
G03  25084431.520   131819581.08007        43.200    25084435.620   102716557.94906        39.950    25084434.940   102716569.95306        38.800    25084434.100    98436706.12507        42.550
G08  20371710.480   107054094.82308        51.900    20371712.160    83418789.68208        52.100    20371711.360    83418785.67808        51.950    20371709.340    79943006.75509        54.400
G10  22478899.080   118127496.64708        52.350    22478899.440    92047423.15107        47.100    22478899.440    92047435.14708        52.250    22478897.260    88212128.22708        49.950
G14  25464700.260   133817906.88106        38.500    25464700.300   104273684.60106        37.550    25464700.180   104273689.57205        34.450    25464702.360    99928968.59906        39.800
G16  23797244.840   125055380.12107        47.550                                                    23797243.200    97445740.97206        39.950
G21  21268800.880   111768399.86708        51.550                                                    21268798.340    87092282.69907        47.000
G23  25160330.980   132218512.68106        40.600    25160330.500   103027431.99406        41.500    25160330.480   103027434.99406        39.450    25160333.160    98734663.99106        41.850
G27  20931890.040   109997865.34008        52.950    20931890.780    85712618.45208        51.550    20931890.260    85712640.45408        52.900    20931889.260    82141280.89808        53.800
G32  23617808.360   124112437.29108        48.850    23617810.000    96710997.47107        44.400    23617809.420    96710988.46908        49.000    23617807.320    92681371.08307        44.950
R01  20200573.180   107983697.78408        49.100    20200575.980    83987348.68407        43.150    20200575.080    83987353.68107        43.750
R02  22644210.260   120833871.74908        48.950    22644212.380    93981915.59006        41.950    22644212.340    93981914.59307        42.000
R08  21861837.820   117069169.60007        45.250    21861837.120    91053795.45407        44.250    21861837.000    91053799.45607        44.300
R14  22083123.020   117715473.11508        49.700    22083124.260    91556475.01707        42.650    22083124.540    91556468.01907        42.900
R15  21933823.220   117207709.86008        51.600    21933823.640    91161556.03107        43.550    21933823.500    91161560.03307        43.000
R17  21743679.100   116354849.72108        50.150    21743678.700    90498215.05007        43.350    21743678.720    90498213.05207        43.500
R23  21662940.980   115882197.79908        48.900
R24  19991360.700   106902863.42208        52.150    19991360.660    83146707.28407        47.700    19991360.580    83146686.28608        48.250
E02  27623439.160   145162173.90247        45.100    27623442.780   108400344.04306        41.150    27623441.620   111228171.08107        44.350    27623442.080   109814252.58707        45.050
E03  27436219.360   144178320.74147        47.700    27436223.200   107665655.95507        42.950    27436221.500   110474314.15607        45.600    27436222.140   109069979.57307        46.750
E05  25908504.400   136150125.85948        50.550    25908507.380   101670570.57007        47.300    25908505.960   104322841.26708        49.650    25908506.400   102996696.44108        50.850
E09  25460301.620   133794797.31648        48.300    25460303.240    99911708.24207        42.800    25460301.980   102518102.98107        46.250    25460303.160   101214905.62907        47.050
E15  24602676.940   129288023.59248        52.550    24602679.800    96546306.43708        49.900    24602678.520    99064903.50308        52.250    24602678.960    97805599.98708        53.500
E27  25680784.580   134953432.72148        51.300    25680786.380   100776916.03507        47.650    25680785.560   103405878.77408        49.850    25680785.760   102091401.92408        51.250
E30  25049923.780   131638248.11048        52.400    25049926.120    98301305.26508        49.600    25049924.820   100865683.29308        52.100    25049925.160    99583486.29608        53.250
E36  26960599.560   141679007.91548        48.900    26960602.800   105799327.59507        44.400    26960601.520   108559300.16507        46.600    26960601.920   107179310.39107        47.950
C05  39802027.460   207259631.12407        43.600    39802020.080   168415374.30206        37.900    39802023.600   160266275.38506        41.950
C06  41096898.700   214002368.30806        39.800    41096891.180   173894393.87806        38.900    41096895.460   165480178.16706        38.350
C09  41512225.700   216165048.98306        38.650    41512219.280   175651765.99205        34.350    41512224.220   167152528.12406        41.950
C16  41110741.740   214074428.84206        40.050    41110736.020   173952990.58805        34.350    41110743.800   165535925.68306        39.750
C27  21630203.560   112634207.97508        52.850    21630199.240    91524529.72908        50.800
C28  24391065.380   127010823.63408        50.250    24391061.440   103206716.23707        45.750
C30  23445027.420   122084428.39008        51.900    23445025.180    99203597.10107        47.350
C32  24140289.640   125704892.55008        51.200    24140287.360   102145543.20107        47.850
C33  25272286.460   131599464.75407        47.400    25272294.500   106935387.31307        44.700
C36  25693570.980   133793158.30907        46.600    25693572.020   108717905.52807        43.200
C39  40859056.040   212763841.22907        44.300    40859048.960   172888015.70206        39.600
C41  22772883.600   118584459.99908        52.800    22772885.280    96359616.23608        51.300
C46  25523163.000   132905801.73307        46.600    25523165.700   107996855.38207        42.450
C58  35218755.920   183393433.43707        42.350
> 2022 01 09 00 13 30.0000000  0 39
G01  21991622.740   115566789.09608        49.400    21991624.340    90052061.28007        47.850    21991624.320    90052069.27707        45.300    21991622.440    86299907.50708        51.000
G03  24518366.180   128844901.02807        44.100    24518369.540   100398628.41006        41.850    24518368.940   100398640.40606        40.850    24518368.600    96215357.71307        43.800
G08  20328807.040   106828635.20908        52.300    20328808.560    83243106.77208        52.700    20328807.720    83243102.77208        52.050    20328805.880    79774643.98509        54.700
G10  22866142.060   120162471.92208        50.500    22866142.600    93633118.03307        47.600    22866142.720    93633130.02908        50.400    22866140.080    89731752.44408        49.000
G14  25011789.620   131437847.47407        44.100    25011789.060   102419093.79306        41.250    25011788.640   102419098.79506        37.950    25011791.640    98151652.62407        42.250
G16  24342457.440   127920484.87207        46.000                                                    24342455.660    99678288.46006        38.850
G21  21183040.240   111317725.44008        51.200                                                    21183037.880    86741107.92108        48.050
G27  21193038.700   111370209.83308        52.450    21193039.420    86781977.56308        51.950    21193038.880    86781999.56208        52.200    21193037.980    83166083.34708        53.600
G32  23344714.440   122677319.47008        49.850    23344715.500    95592724.10107        46.300    23344714.860    95592715.09608        49.850    23344713.800    91609692.49307        46.600
R01  20067222.400   107270862.95108        50.050    20067225.040    83432921.79307        44.100    20067224.180    83432926.78807        45.100
R02  22018846.040   117496813.50008        50.400    22018847.640    91386427.01907        45.050    22018847.840    91386426.02407        45.400
R08  22231086.960   119046480.65307        44.850    22231086.440    92591703.94707        44.950    22231086.220    92591707.94707        45.750
R14  22575252.220   120338794.98208        49.500    22575253.580    93596835.51707        42.250    22575253.780    93596828.52407        42.350
R15  21991544.920   117516154.05608        51.400    21991544.980    91401456.94207        44.750    21991545.080    91401460.94307        45.100
R17  21405360.560   114544438.32308        51.050    21405360.420    89090117.47907        45.950    21405360.240    89090115.48707        46.700
R23  21958508.960   117463284.23708        48.900
R24  19999469.660   106946224.90008        52.650    19999469.680    83180432.79708        49.000    19999469.520    83180411.79708        49.450
E02  28083979.800   147582323.33347        43.750    28083983.220   110207596.35206        40.200    28083982.280   113082569.28506        40.100    28083983.040   111645077.84507        42.850
E03  27008535.100   141930826.26248        48.700    27008538.160   105987332.98007        44.200    27008537.240   108752208.77807        45.950    27008537.640   107369765.39108        48.050
E05  25684588.400   134973440.08348        51.350    25684591.060   100791876.93908        48.100    25684589.940   103421225.15108        50.250    25684590.280   102106541.56208        52.050
E09  25580315.540   134425472.34547        47.900    25580316.300   100382666.93007        42.300    25580315.920   103001347.51407        46.350    25580316.340   101692007.23807        47.150
E15  24425249.960   128355639.94648        52.550    24425252.760    95850046.05508        50.450    24425252.000    98350479.79308        52.400    24425252.180    97100257.94409        54.350
E27  25623619.300   134653027.38648        51.200    25623621.080   100552587.32807        47.950    25623620.080   103175698.02508        49.850    25623620.580   101864147.19608        51.900
E30  25386482.200   133406874.68748        51.250    25386484.460    99622032.61508        48.650    25386483.580   102220864.43108        50.800    25386483.860   100921440.54208        52.600
E36  27243990.760   143168237.22047        47.650    27243994.080   106911413.94407        44.300    27243993.160   109700397.53907        45.000    27243993.160   108305902.25907        47.650
C05  39802753.700   207263412.31607        43.700    39802746.340   168418446.79106        38.600    39802749.880   160269199.20407        42.000
C06  40887234.400   212910595.60507        42.350    40887225.900   173007239.47505        34.800    40887230.160   164635950.58406        38.750
C09  41263300.340   214868829.54806        38.000    41263292.620   174598481.77306        37.200    41263299.060   166150209.35106        38.400
C16  40929134.440   213128754.96507        44.800    40929128.460   173184553.35205        34.650    40929136.880   164804671.04106        41.000
C27  21657205.240   112774812.29308        52.850    21657200.940    91638782.17008        51.350
C28  24711227.040   128677988.99208        49.400    24711223.560   104561424.38907        45.250
C30  23138098.840   120486171.44908        51.900    23138096.580    97904882.52708        48.900
C32  23700561.740   123415114.98908        52.150    23700559.820   100284911.48308        49.550
C33  25640749.320   133518146.90407        47.250    25640757.040   108494473.53507        44.900
C36  25845075.480   134582083.14107        44.250    25845077.200   109358971.18407        44.000
C39  40717543.580   212026949.38807        46.600    40717536.860   172289230.86906        39.700
C41  22745292.600   118440789.93608        52.400    22745295.040    96242872.63308        52.000
C46  25907152.280   134905331.41807        45.450    25907155.380   109621636.06607        42.000
C58  35590923.860   185331404.37606        41.000
