     3.02           OBSERVATION DATA    G: GPS              RINEX VERSION / TYPE
HEADER CHANGED BY EPN CB ON 2022-03-11                      COMMENT
TO BE CONFORM WITH THE INFORMATION IN                       COMMENT
ftp://epncb.oma.be/pub/station/log/noa1.log                 COMMENT
                                                            COMMENT
Spider V7.2.2.7822  NOA                 20220305 000017 UTC PGM / RUN BY / DATE
SNR is mapped to RINEX snr flag value [1-9]                 COMMENT
LX:     < 12dBHz -> 1; 12-17dBHz -> 2; 18-23dBHz -> 3       COMMENT
       24-29dBHz -> 4; 30-35dBHz -> 5; 36-41dBHz -> 6       COMMENT
       42-47dBHz -> 7; 48-53dBHz -> 8; >= 54dBHz -> 9       COMMENT
Product                                                     COMMENT
NOA1                                                        MARKER NAME
12620M001                                                   MARKER NUMBER
NOA GNSS Team       National Observatory of Athens          OBSERVER / AGENCY
462590              LEICA GRX1200PRO    9.20/2.127          REC # / TYPE / VERS
103326              LEIAT504        LEIS                    ANT # / TYPE
  4599643.3185  2034827.9762  3909890.7491                  APPROX POSITION XYZ
        1.8910        0.0000        0.0000                  ANTENNA: DELTA H/E/N
G    8 C1C L1C D1C S1C C2W L2W D2W S2W                      SYS / # / OBS TYPES
DBHZ                                                        SIGNAL STRENGTH UNIT
    30.000                                                  INTERVAL
  2022    03    04    00    00    0.0000000     GPS         TIME OF FIRST OBS
  2022    03    04    23    59   30.0000000     GPS         TIME OF LAST OBS
     0                                                      RCV CLOCK OFFS APPL
G L2S -0.25000                                              SYS / PHASE SHIFT
G L2X -0.25000                                              SYS / PHASE SHIFT
R L2P  0.25000                                              SYS / PHASE SHIFT
E L8Q -0.25000                                              SYS / PHASE SHIFT
    18    18  2185     7                                    LEAP SECONDS
                                                            END OF HEADER
> 2022 03 04 00 00  0.0000000  0  9
G01  20176608.780   106028802.11808     -1009.418          50.250    20176610.080    82619851.24609      -786.562          54.500
G03  20719565.760   108882069.81508       762.203          49.750    20719566.420    84843175.68809       593.922          55.000
G04  21342618.100   112156219.39808      2167.688          48.250    21342617.440    87394474.09607      1689.105          45.500
G09  24151573.280   126917380.73006      3332.055          40.000    24151574.560    98896668.06208      2596.402          49.500
G17  23024619.640   120995189.29307       574.520          45.500    23024617.640    94281957.83106       447.676          41.750
G19  23620515.480   124126645.40106      1812.930          40.750    23620511.680    96722046.24405      1412.668          35.500
G21  21749722.900   114295578.53208     -1981.855          48.750    21749720.460    89061481.47907     -1544.305          45.750
G22  23710081.240   124597314.23707     -3012.410          42.250    23710079.400    97088824.14905     -2347.336          33.500
G31  22569328.540   118602630.62707      -510.289          45.000    22569326.520    92417627.92808      -397.633          53.000
> 2022 03 04 00 00 30.0000000  0  9
G01  20182418.960   106059334.91708     -1026.430          50.250    20182420.280    82643643.02409      -799.820          54.500
G03  20715235.060   108859311.81708       754.777          49.500    20715235.680    84825442.18809       588.137          55.000
G04  21330280.180   112091382.98108      2154.664          48.000    21330279.500    87343952.22407      1678.957          45.750
G09  24132568.240   126817508.48906      3326.086          40.500    24132569.560    98818845.57408      2591.754          49.500
G17  23021389.760   120978215.86207       556.926          45.250    23021387.760    94268731.77506       433.965          41.250
G19  23610217.040   124072526.26606      1794.633          40.250    23610213.320    96679875.47906      1398.410          39.000
G21  21761069.660   114355205.73308     -1993.449          49.000    21761067.180    89107944.22507     -1553.340          45.250
G22  23727286.200   124687726.56507     -3015.285          42.250    23727284.240    97159275.30105     -2349.574          33.500
G31  22572298.660   118618240.34407      -530.449          45.250    22572296.860    92429791.34608      -413.340          52.750
> 2022 03 04 00 01  0.0000000  0  9
G01  20188328.080   106090387.47908     -1043.902          50.250    20188329.320    82667839.81709      -813.434          54.500
G03  20710948.000   108836783.43508       746.781          49.500    20710948.580    84807887.59609       581.902          55.000
G04  21318018.420   112026946.74208      2140.918          48.250    21318017.680    87293742.18407      1668.246          45.750
G09  24113596.380   126717810.39206      3319.922          40.500    24113597.520    98741158.76408      2586.949          48.750
G17  23018260.440   120961771.43707       539.105          45.000    23018258.560    94255917.92306       420.078          41.750
G19  23600022.660   124018954.91306      1776.227          40.500    23600019.280    96638131.57306      1384.070          38.500
G21  21772483.060   114415183.25808     -2005.324          49.000    21772480.520    89154679.94807     -1562.594          45.750
G22  23744511.760   124778247.80706     -3019.598          41.500    23744509.960    97229811.30305     -2352.938          33.500
G31  22575385.800   118634462.57607      -551.266          45.500    22575383.840    92442432.04208      -429.562          52.500
> 2022 03 04 00 52 30.0000000  0  9
G01  21301952.960   111942521.42608     -2677.031          48.750    21301954.380    87227943.30709     -2086.000          55.500
G03  20514997.920   107807058.34708      -106.090          50.000    20514998.480    84005504.18809       -82.672          54.750
G04  20481216.620   107629526.95308       695.051          49.250    20481215.880    83867182.01008       541.594          49.500
G06  24002592.880   126134474.56306      3313.352          40.000    24002594.500    98286615.34806      2581.828          39.250
G09  22380610.580   117610914.79007      2511.625          46.500    22380611.020    91644878.23708      1957.105          53.750
G17  23222042.720   122032651.28807     -1177.496          44.500    23222041.040    95090368.68206      -917.531          38.500
G19  23148324.080   121645259.96607      -266.281          43.000    23148320.120    94788498.58906      -207.496          39.250
G21  23264779.060   122257246.19407     -2988.449          44.500    23264776.580    95265377.18606     -2328.664          37.500
G31  23485743.240   123418424.44407     -2457.355          43.000    23485740.960    96170194.75408     -1914.824          50.500
