     3.02           OBSERVATION DATA    M: MIXED            RINEX VERSION / TYPE
HEADER CHANGED BY EPN CB ON 2022-03-11                      COMMENT
TO BE CONFORM WITH THE INFORMATION IN                       COMMENT
ftp://epncb.oma.be/pub/station/log/duth.log                 COMMENT
                                                            COMMENT
Spider V7.1.1.7438  DGS                 20220305 000026 UTC PGM / RUN BY / DATE
SNR is mapped to RINEX snr flag value [1-9]                 COMMENT
LX:     < 12dBHz -> 1; 12-17dBHz -> 2; 18-23dBHz -> 3       COMMENT
       24-29dBHz -> 4; 30-35dBHz -> 5; 36-41dBHz -> 6       COMMENT
       42-47dBHz -> 7; 48-53dBHz -> 8; >= 54dBHz -> 9       COMMENT
Product                                                     COMMENT
DUTH                                                        MARKER NAME
12621M001                                                   MARKER NUMBER
Dr. Christos PikridaDepartment of Geodesy and Surveying     OBSERVER / AGENCY
356166              LEICA GRX1200GGPRO  9.20/3.823          REC # / TYPE / VERS
200860              LEIAT504GG      LEIS                    ANT # / TYPE
  4362689.8809  2026647.9686  4174234.2239                  APPROX POSITION XYZ
        0.1830        0.0000        0.0000                  ANTENNA: DELTA H/E/N
G    8 C1C L1C D1C S1C C2W L2W D2W S2W                      SYS / # / OBS TYPES
R    8 C1C L1C D1C S1C C2P L2P D2P S2P                      SYS / # / OBS TYPES
DBHZ                                                        SIGNAL STRENGTH UNIT
    30.000                                                  INTERVAL
  2022    03    04    00    00    0.0000000     GPS         TIME OF FIRST OBS
  2022    03    04    23    59   30.0000000     GPS         TIME OF LAST OBS
     0                                                      RCV CLOCK OFFS APPL
G L2S -0.25000                                              SYS / PHASE SHIFT
G L2X -0.25000                                              SYS / PHASE SHIFT
R L2P  0.25000                                              SYS / PHASE SHIFT
E L8Q -0.25000                                              SYS / PHASE SHIFT
 22 R01  1 R02 -4 R03  5 R04  6 R05  1 R06 -4 R07  5 R08  6 GLONASS SLOT / FRQ #
    R09 -2 R10 -7 R12 -1 R13 -2 R14 -7 R15  0 R17  4 R18 -3 GLONASS SLOT / FRQ #
    R19  3 R20  2 R21  4 R22 -3 R23  3 R24  2               GLONASS SLOT / FRQ #
 C1C  -71.940 C1P  -71.940 C2C  -71.940 C2P  -71.940        GLONASS COD/PHS/BIS
    18    18  2185     7                                    LEAP SECONDS
                                                            END OF HEADER
> 2022 03 04 00 00  0.0000000  0 18
G01  20243517.560   106380411.41808     -1242.766          51.250    20243518.680    82893846.80009      -968.395          54.750
G03  20619020.680   108353702.79708       852.785          50.750    20619021.100    84431468.39109       664.508          55.000
G04  21542633.500   113207338.11708      2389.520          49.250    21542633.020    88213529.24807      1861.965          46.000
G09  24438727.980   128426388.92107      3441.828          42.250    24438729.140   100072523.72008      2681.945          48.000
G17  22978068.560   120750559.35407       341.664          46.750    22978066.760    94091336.26007       266.227          42.000
G19  23460759.840   123287123.14507      1621.258          43.000    23460755.980    96067875.11506      1263.313          39.000
G21  21923317.180   115207820.26608     -2171.520          50.000    21923314.720    89772326.58107     -1692.098          45.500
G22  23434790.440   123150669.98707     -2943.453          44.250    23434789.360    95961559.02306     -2293.605          36.250
G31  22401985.340   117723237.99107      -297.781          47.000    22401983.440    91732389.69808      -232.039          53.000
G32  24991723.280   131332403.80806     -3346.027          38.500    24991723.680   102336952.35407     -2607.301          45.000
R01  19727826.340   105456587.22208       519.527          49.000    19727833.320    82021844.95107       404.078          45.000
R02  23171275.620   123646407.55007      3024.918          43.750    23171282.520    96169463.60007      2352.711          43.000
R08  20662538.580   110647112.63108     -2347.816          48.500    20662542.500    86058958.81907     -1826.082          47.500
R09  23450513.820   125224436.13906      -230.477          41.000    23450519.040    97396803.17207      -179.262          42.250
R10  23044984.180   122842738.81106      2450.535          41.500
R17  22909354.040   122592584.82607      3986.258          44.000    22909358.740    95349805.04607      3100.422          42.000
R23  20116780.920   107611209.70208     -2835.609          50.000
R24  19708379.260   105389574.01008       865.820          51.000    19708383.860    81969675.10308       673.410          49.000
> 2022 03 04 00 28 30.0000000  0 17
G01  20805393.080   109333085.61508     -2193.055          50.750    20805394.480    85194631.29209     -1708.879          55.000
G03  20425456.580   107336517.68208       328.797          51.000    20425457.240    83638856.55509       256.207          55.000
G04  20887001.400   109761970.27608      1626.730          49.750    20887000.720    85528827.59708      1267.582          48.000
G09  23371156.300   122816267.51307      3095.961          44.250    23371157.140    95701001.62008      2412.438          52.250
G17  23031543.660   121031569.23907      -659.324          46.500    23031541.520    94310304.35406      -513.762          40.500
G19  23117350.280   121482493.56707       473.102          44.500    23117346.220    94661670.22006       368.648          40.500
G21  22726604.680   119429122.64907     -2742.527          47.750    22726602.460    93061652.53806     -2137.039          40.500
G22  24425563.640   128357209.87106     -3113.781          41.250    24425562.500   100018601.87405     -2426.328          32.750
G31  22689941.780   119236457.38407     -1458.309          46.750    22689939.300    92911522.12808     -1136.344          51.750
R01  19677287.000   105186426.67208      -183.496          49.000    19677294.140    81811720.26207      -142.723          45.500
R02  22265147.080   118811135.02607      2624.863          46.000    22265153.640    92408696.89007      2041.559          44.000
R08  21462395.740   114930307.92007     -2632.043          46.250    21462399.700    89390332.29307     -2047.145          46.000
R09  23740237.340   126771545.52606     -1563.617          41.000    23740242.440    98600110.81007     -1216.152          42.250
R10  22432243.520   119576492.91607      1307.754          43.250
R17  21750541.080   116391546.29507      3190.914          46.750    21750545.800    90526775.73807      2481.816          44.500
R23  21199384.320   113402403.14408     -3870.441          48.000
R24  19680274.400   105239282.47708      -700.187          51.250    19680278.980    81852781.30308      -544.590          49.000
> 2022 03 04 00 57  0.0000000  0 17
G01  21653418.260   113789485.67008     -2985.516          49.500    21653419.660    88667150.38209     -2326.379          54.750
G03  20410261.460   107256666.31708      -244.031          51.000    20410262.160    83576634.45509      -190.152          54.750
G04  20488105.720   107665760.79108       824.867          50.250    20488104.860    83895417.95008       642.750          50.250
G06  23647940.540   124270769.16807      3180.055          43.000    23647941.480    96834380.28606      2477.961          38.000
G09  22436978.380   117907130.48708      2628.586          48.000    22436979.140    91875700.69609      2048.246          54.000
G17  23392660.200   122929248.34307     -1527.723          45.000    23392658.760    95789014.55606     -1190.438          38.500
G19  23154069.760   121675454.50407      -686.406          44.000    23154066.440    94812028.61606      -534.867          40.000
G21  23689895.760   124491247.10007     -3145.781          44.500    23689893.360    97006164.25405     -2451.258          35.750
G26  25161827.280   132226295.31206      2101.480          37.750    25161828.680   103033483.14807      1637.516          42.000
G31  23333751.720   122619703.28207     -2461.648          44.250    23333749.980    95547817.49008     -1918.172          50.750
R01  19831816.600   106012476.21008      -762.754          48.750    19831823.800    82454203.16807      -593.254          45.500
R02  21490078.220   114675224.88708      2213.035          48.000    21490084.880    89191878.90207      1721.250          45.750
R08  22328018.960   119565678.20307     -2771.105          43.500    22328023.040    92995619.26407     -2155.309          43.750
R10  22235350.560   118526944.20307      -107.961          44.750
R17  20915624.780   111923741.34508      1970.309          49.000    20915629.120    87051816.58507      1532.457          46.500
R23  22543866.020   120594470.51907     -4464.453          44.250
R24  20147683.700   107738728.87108     -2188.113          51.000    20147688.700    83796794.50808     -1701.871          48.500
