     3.02           OBSERVATION DATA    M: MIXED            RINEX VERSION / TYPE
HEADER CHANGED BY EPN CB ON 2021-01-08                      COMMENT
TO BE CONFORM WITH THE INFORMATION IN                       COMMENT
ftp://epncb.oma.be/pub/station/log/flrs.log                 COMMENT
                                                            COMMENT
Spider V7.1.1.7438  DGT                 20210102 001657 UTC PGM / RUN BY / DATE
SNR is mapped to RINEX snr flag value [1-9]                 COMMENT
LX:     < 12dBHz -> 1; 12-17dBHz -> 2; 18-23dBHz -> 3       COMMENT
       24-29dBHz -> 4; 30-35dBHz -> 5; 36-41dBHz -> 6       COMMENT
       42-47dBHz -> 7; 48-53dBHz -> 8; >= 54dBHz -> 9       COMMENT
Site Information :                                          COMMENT
Santa Cruz das Flores                                       COMMENT
R A Acores                                                  COMMENT
Portugal                                                    COMMENT
American                                                    COMMENT
Capitania do Porto de Santa Cruz das Flores                 COMMENT
Product                                                     COMMENT
FLRS                                                        MARKER NAME
31907M001                                                   MARKER NUMBER
Divisao de Geodesia DIRECAO-GERAL DO TERRITORIO             OBSERVER / AGENCY
355317              LEICA GRX1200GGPRO  9.20/3.823          REC # / TYPE / VERS
200445              LEIAT504GG      NONE                    ANT # / TYPE
  4221530.0272 -2549242.3485  4031397.8561                  APPROX POSITION XYZ
        0.0000        0.0000        0.0000                  ANTENNA: DELTA H/E/N
G    8 C1C L1C D1C S1C C2W L2W D2W S2W                      SYS / # / OBS TYPES
R    8 C1C L1C D1C S1C C2P L2P D2P S2P                      SYS / # / OBS TYPES
DBHZ                                                        SIGNAL STRENGTH UNIT
    30.000                                                  INTERVAL
  2021    01    01    00    00    0.0000000     GPS         TIME OF FIRST OBS
  2021    01    01    23    59   30.0000000     GPS         TIME OF LAST OBS
     0                                                      RCV CLOCK OFFS APPL
G L2S -0.25000                                              SYS / PHASE SHIFT
G L2X -0.25000                                              SYS / PHASE SHIFT
R L2P  0.25000                                              SYS / PHASE SHIFT
E L8Q -0.25000                                              SYS / PHASE SHIFT
 23 R01  1 R02 -4 R03  5 R04  6 R05  1 R06 -4 R07  5 R08  6 GLONASS SLOT / FRQ #
    R09 -2 R10 -7 R12 -1 R13 -2 R14 -7 R15  0 R16 -1 R17  4 GLONASS SLOT / FRQ #
    R18 -3 R19  3 R20  2 R21  4 R22 -3 R23  3 R24  2        GLONASS SLOT / FRQ #
 C1C  -71.940 C1P  -71.940 C2C  -71.940 C2P  -71.940        GLONASS COD/PHS/BIS
    18    18  1929     7                                    LEAP SECONDS
                                                            END OF HEADER
> 2021 01 01 00 00  0.0000000  0 19
G01  23184989.980   121837947.12407      3754.746          44.000    23184991.840    94938680.00806      2925.777          39.250
G07  22381437.660   117615245.79007       899.129          47.500    22381435.960    91648243.27207       700.617          44.000
G08  20721205.040   108890689.65508       738.969          51.000    20721205.320    84849919.06709       575.820          54.750
G10  23255150.460   122206643.39207       853.645          46.750    23255151.020    95225961.92008       665.172          51.250
G16  21773773.040   114421965.96908     -2308.969          49.250    21773770.600    89159982.18407     -1799.199          45.000
G20  23927241.080   125738510.38607     -1310.164          42.000    23927238.560    97978056.26306     -1020.906          36.000
G21  21282541.620   111840526.44308      1988.965          49.750    21282539.040    87148452.10807      1549.844          45.750
G23  23992585.300   126081899.92207      -900.352          42.500    23992584.160    98245629.58105      -701.574          35.250
G26  24076882.240   126524910.05106     -3236.379          40.000    24076883.840    98590844.05108     -2521.859          48.750
G27  20831627.740   109470978.19508     -1373.758          51.000    20831627.540    85302078.94409     -1070.465          54.750
G30  24277235.960   127577728.35006      2367.969          41.750    24277235.760    99411196.01706      1845.172          36.750
R01  24369618.500   130269577.81206      -629.254          36.000    24369623.960   101320810.50205      -489.418          32.250
R02  24010138.480   128122694.28906      2525.254          39.250    24010144.140    99651011.37806      1964.082          40.000
R09  22437056.880   119812624.61907      3846.332          45.500    22437059.800    93187604.38007      2991.590          43.500
R15  20790756.920   111099514.37208     -3425.711          50.250    20790761.460    86410757.98507     -2664.441          46.500
R16  19428222.280   103782075.20008       637.070          48.000    19428226.220    80719413.41507       495.496          46.000
R17  21605552.340   115615713.69107     -3235.609          47.750    21605555.440    89923370.31007     -2516.590          44.500
R18  19449438.000   103822453.26008      -697.812          50.750    19449442.860    80750823.12508      -542.742          49.250
R19  21063111.820   112673452.70006      2343.148          40.000    21063115.200    87634929.92807      1822.445          44.250
> 2021 01 01 00 00 30.0000000  0 19
G01  23163570.820   121725388.76607      3748.605          43.500    23163572.740    94850972.19806      2920.988          39.000
G07  22376354.760   117588535.25207       880.883          47.750    22376353.040    91627429.85507       686.398          44.250
G08  20717007.640   108868632.50308       730.953          51.000    20717008.000    84832731.67809       569.574          54.750
G10  23250321.240   122181264.52407       837.410          47.250    23250321.360    95206186.18908       652.527          51.250
G16  21786981.420   114491376.61908     -2318.984          49.250    21786979.040    89214068.39807     -1807.004          44.750
G20  23934763.760   125778042.77706     -1326.137          41.250    23934761.620    98008860.74305     -1033.352          35.000
G21  21271224.560   111781054.63108      1975.078          50.250    21271221.900    87102110.43307      1539.020          46.250
G23  23997774.700   126109168.60007      -918.141          43.000    23997772.960    98266877.90405      -715.437          35.250
G26  24095369.280   126622060.72706     -3241.203          40.750    24095370.880    98666545.86308     -2525.613          48.500
G27  20839487.860   109512282.96308     -1380.559          51.000    20839487.580    85334264.47309     -1075.766          54.750
G30  24263753.820   127506878.26707      2354.637          42.500    24263753.520    99355988.17005      1834.781          35.000
R01  24373209.380   130288771.79305      -652.168          33.750    24373214.780   101335739.17205      -507.242          31.000
R02  23995976.000   128047120.23506      2512.664          38.250    23995981.760    99592231.56806      1954.289          38.000
R09  22415472.060   119697362.80707      3837.219          45.500    22415474.840    93097956.28907      2984.504          43.000
R15  20810031.560   111202512.89908     -3441.355          50.000    20810036.040    86490867.93607     -2676.613          46.250
R16  19424712.660   103763327.62108       612.059          48.000    19424716.620    80704831.95007       476.043          46.000
R17  21623698.640   115712819.37107     -3238.684          47.750    21623702.140    89998896.92207     -2518.980          44.750
R18  19453400.180   103843603.72108      -712.836          50.750    19453405.080    80767273.48308      -554.434          49.250
R19  21050007.020   112603351.27406      2329.641          39.750    21050010.400    87580406.61707      1811.941          44.000
> 2021 01 01 00 01  0.0000000  0 19
G01  23142191.100   121613037.31107      3741.223          43.250    23142192.820    94763425.63206      2915.238          38.500
G07  22371379.620   117562390.33608       862.191          48.000    22371377.900    91607057.19207       671.832          43.500
G08  20712859.320   108846833.34908       722.426          51.000    20712859.780    84815745.32909       562.930          54.750
G10  23245587.240   122156386.81607       820.859          47.000    23245587.260    95186800.95508       639.625          51.500
G16  21800250.600   114561106.75108     -2329.473          49.250    21800248.300    89268403.55607     -1815.176          44.000
G20  23942382.820   125818082.18506     -1342.840          41.000    23942380.400    98040060.29406     -1046.371          37.000
G21  21259990.660   111722020.77908      1960.586          49.750    21259988.240    87056110.05307      1527.730          46.250
G23  24003067.880   126136982.70707      -935.988          43.000    24003065.680    98288551.26006      -729.344          37.000
G26  24113887.080   126719371.37206     -3246.367          41.750    24113888.340    98742372.34308     -2529.641          48.750
G27  20847390.400   109553810.96208     -1387.980          51.000    20847390.020    85366623.94309     -1081.547          54.750
G30  24250351.020   127436446.92406      2340.957          41.500    24250351.160    99301106.59606      1824.121          38.000
R01  24376928.620   130308652.67705      -674.527          33.000    24376933.980   101351202.06905      -524.637          32.000
R02  23981887.760   127971943.83906      2499.348          37.750    23981893.680    99533761.13006      1943.953          39.500
R09  22393940.940   119582388.95207      3827.793          45.250    22393943.900    93008532.17507      2977.168          43.500
R15  20829397.480   111305998.82708     -3457.586          49.750    20829402.140    86571356.96607     -2689.238          46.250
R16  19421345.900   103745343.29007       586.891          47.750    19421349.860    80690844.12307       456.465          45.750
R17  21641864.400   115810028.50907     -3242.113          47.500    21641867.980    90074504.01307     -2521.648          44.250
R18  19457449.540   103865219.72808      -728.234          50.750    19457454.560    80784085.93708      -566.406          49.250
R19  21036981.960   112533676.57706      2315.348          39.500    21036985.440    87526215.20507      1800.820          44.000
> 2021 01 01 00 01 30.0000000  0 19
G01  23120850.100   121500889.66407      3734.320          43.250    23120851.980    94676037.88906      2909.855          40.750
G07  22366511.280   117536806.55808       843.555          48.500    22366509.460    91587121.76607       657.312          43.750
G08  20708759.140   108825287.05708       713.996          51.000    20708759.660    84798956.01009       556.355          54.750
G10  23240947.820   122132006.84907       804.395          46.750    23240948.080    95167803.59708       626.801          51.750
G16  21813579.380   114631149.92608     -2339.941          49.500    21813577.040    89322982.64507     -1823.336          44.250
G20  23950097.100   125858621.68906     -1359.492          41.000    23950095.000    98071649.49305     -1059.352          34.000
G21  21248839.520   111663420.46808      1946.074          50.250    21248836.680    87010447.45407      1516.418          46.000
G23  24008463.620   126165336.27407      -954.223          43.500    24008461.380    98310644.97805      -743.551          35.250
G26  24132434.000   126816835.54007     -3251.375          42.250    24132434.980    98818318.45408     -2533.539          48.250
G27  20855334.120   109595556.08308     -1395.184          51.000    20855333.800    85399152.60109     -1087.160          54.750
G30  24237027.520   127366431.14607      2327.184          42.750    24237027.940    99246548.86505      1813.387          35.250
R01  24380774.980   130329214.77405      -696.574          34.750    24380780.780   101367194.84904      -541.785          28.250
R02  23967873.900   127897163.84807      2485.945          42.750    23967880.000    99475598.83306      1933.516          37.750
R09  22372463.700   119467701.56507      3818.156          45.500    22372467.020    92919330.89407      2969.672          43.750
R15  20848853.180   111409963.51108     -3473.414          50.250    20848857.680    86652218.38507     -2701.547          46.250
R16  19418121.240   103728117.94108       561.602          48.000    19418125.280    80677446.62307       436.797          46.000
R17  21660048.020   115907333.09207     -3245.004          47.750    21660051.640    90150185.33107     -2523.895          44.250
R18  19461584.740   103887293.78608      -743.406          50.750    19461589.720    80801254.64108      -578.203          49.250
R19  21024035.660   112464423.15506      2301.395          39.500    21024039.160    87472351.46807      1789.973          44.250
> 2021 01 01 00 02  0.0000000  0 19
G01  23099549.480   121388953.95907      3727.234          43.500    23099551.220    94588815.28006      2904.336          39.000
G07  22361751.140   117511790.69308       824.016          48.500    22361748.880    91567628.88407       642.086          43.500
G08  20704708.080   108803998.88208       705.008          50.750    20704708.660    84782367.82209       549.355          54.750
G10  23236404.260   122108131.80607       787.012          46.750    23236404.900    95149199.67608       613.254          51.250
G16  21826968.760   114701511.57208     -2350.969          49.250    21826966.500    89377809.89507     -1831.926          44.000
G20  23957907.160   125899666.04906     -1376.707          39.500    23957905.380    98103632.11506     -1072.762          40.500
G21  21237771.820   111605260.41508      1931.012          50.000    21237769.480    86965127.96807      1504.684          46.500
G23  24013962.800   126194234.55507      -972.805          42.500    24013960.740    98333163.11706      -758.031          36.500
G26  24151011.100   126914457.72906     -3257.004          41.750    24151011.720    98894387.70707     -2537.926          47.750
G27  20863320.100   109637523.40408     -1402.926          51.000    20863319.940    85431854.39909     -1093.191          54.750
G30  24223784.460   127296838.98707      2312.336          42.500    24223784.600    99192321.19306      1801.816          37.500
R01  24384749.660   130350462.92705      -719.945          35.000    24384755.480   101383721.16605      -559.969          32.000
R02  23953936.340   127822790.25906      2471.926          40.750    23953942.500    99417752.71906      1922.609          37.000
R09  22351041.980   119353310.66907      3807.910          45.250    22351045.340    92830360.18607      2961.707          43.750
R15  20868398.940   111514409.92008     -3489.883          50.250    20868403.340    86733454.47507     -2714.352          46.000
R16  19415040.160   103711659.21508       535.492          48.000    19415044.200    80664645.38307       416.488          46.000
R17  21678250.220   116004736.81507     -3248.523          47.500    21678254.300    90225943.74407     -2526.633          44.500
R18  19465806.540   103909829.89508      -759.172          50.750    19465811.440    80818782.72508      -590.473          49.250
R19  21011169.700   112395597.91006      2286.430          39.750    21011173.000    87418820.76707      1778.336          44.000
> 2021 01 01 00 02 30.0000000  0 19
G01  23078288.860   121277228.54407      3720.992          43.500    23078290.420    94501756.50106      2899.469          39.750
G07  22357098.480   117487339.47508       805.855          48.250    22357095.740    91548575.98907       627.937          43.750
G08  20700705.420   108782964.95708       697.059          51.000    20700706.020    84765977.75209       543.164          54.750
G10  23231956.500   122084759.31407       771.074          46.750    23231957.020    95130987.34408       600.832          51.000
G16  21840417.840   114772186.81208     -2360.914          49.250    21840415.580    89432881.50507     -1839.676          44.750
G20  23965812.500   125941210.23106     -1392.508          40.750    23965810.560    98136004.20905     -1085.066          33.750
G21  21226787.780   111547537.91808      1916.914          50.000    21226785.060    86920149.38807      1493.699          46.250
G23  24019564.640   126223673.05607      -990.000          42.500    24019562.540    98356102.22705      -771.434          35.250
G26  24169616.980   127012232.88806     -3261.469          41.000    24169617.740    98970576.13408     -2541.406          48.250
G27  20871347.560   109679708.23508     -1409.621          51.000    20871347.460    85464725.69609     -1098.410          54.750
G30  24210621.920   127227668.65306      2298.605          41.000    24210622.280    99138422.20806      1791.117          37.000
R01  24388851.920   130372392.49606      -742.215          36.250    24388857.960   101400777.57405      -577.277          31.500
R02  23940075.040   127748822.82306      2458.918          41.500    23940080.720    99360222.48006      1912.488          39.000
R09  22329675.620   119239216.17707      3798.301          44.750    22329679.240    92741620.03007      2954.230          43.500
R15  20888033.380   111619330.78108     -3505.078          49.750    20888037.860    86815059.58207     -2726.176          46.500
R16  19412102.220   103695964.85808       510.496          48.000    19412106.160    80652438.65107       397.047          46.000
R17  21696469.860   116102233.43608     -3251.277          48.000    21696473.620    90301774.45307     -2528.773          44.500
R18  19470113.680   103932821.73508      -773.777          51.000    19470118.560    80836665.26608      -601.828          49.250
R19  20998382.720   112327196.46206      2273.367          40.000    20998386.120    87365619.65907      1768.176          44.500
> 2021 01 01 00 03  0.0000000  0 19
G01  23057068.800   121165716.64407      3713.289          43.750    23057070.680    94414864.14806      2893.469          38.750
G07  22352553.460   117463454.61408       786.477          48.250    22352550.560    91529964.40707       612.840          43.500
G08  20696751.280   108762185.90308       688.230          51.000    20696751.860    84749786.29009       536.281          54.750
G10  23227604.840   122061891.83007       753.562          46.750    23227605.240    95113168.52908       587.191          51.000
G16  21853926.600   114843176.06408     -2371.742          49.250    21853924.360    89488197.79507     -1848.113          44.000
G20  23973813.500   125983254.07506     -1409.762          41.750    23973810.740    98168765.62706     -1098.523          40.500
G21  21215886.820   111490254.30008      1901.898          50.250    21215884.420    86875512.84007      1482.000          46.750
G23  24025269.200   126253652.06407     -1008.535          42.750    24025267.620    98379462.50306      -785.875          38.000
G26  24188251.820   127110160.62906     -3266.613          41.500    24188252.920    99046883.46707     -2545.414          47.750
G27  20879416.440   109722110.76708     -1417.223          51.000    20879416.400    85497766.62209     -1104.332          54.750
G30  24197539.920   127158923.21907      2284.215          42.250    24197539.980    99084854.33806      1779.902          38.000
R01  24393082.040   130395003.97405      -764.980          33.750    24393088.020   101418364.29804      -594.980          28.250
R02  23926290.760   127675267.01506      2444.762          41.000    23926296.540    99303012.37706      1901.473          38.000
R09  22308366.000   119125422.90507      3787.820          46.000    22308369.220    92653114.15807      2946.082          43.750
R15  20907756.340   111724724.28608     -3521.152          49.750    20907760.940    86897032.30007     -2738.676          45.750
R16  19409307.740   103681037.15708       484.641          48.000    19409311.680    80640828.21007       376.937          46.000
R17  21714706.560   116199821.79508     -3254.680          48.000    21714710.620    90377676.47307     -2531.422          44.500
R18  19474505.960   103956267.90108      -789.395          51.000    19474510.720    80854901.17708      -613.973          49.250
R19  20985675.360   112259220.66506      2258.492          40.000    20985678.740    87312749.63907      1756.605          44.250
> 2021 01 01 00 03 30.0000000  0 18
G01  23035889.860   121054420.22707      3706.160          44.000    23035891.600    94328139.68106      2887.918          39.750
G07  22348116.120   117440136.40508       767.695          48.500    22348113.180    91511794.37607       598.203          43.000
G08  20692845.540   108741661.06608       679.723          51.000    20692846.100    84733792.90909       529.648          54.750
G10  23223349.500   122039530.51107       736.617          46.500    23223350.000    95095744.14708       573.988          51.750
G16  21867495.040   114914478.59508     -2382.051          49.500    21867492.760    89543758.19607     -1856.148          44.250
G20  23981909.320   126025795.81007     -1426.594          44.000
G21  21205069.960   111433410.26908      1887.379          50.000    21205067.300    86831218.79007      1470.684          46.250
G23  24031076.840   126284170.61707     -1026.664          43.250    24031075.380    98403243.20606      -799.996          37.500
G26  24206915.520   127208239.52006     -3271.969          41.000    24206916.920    99123308.57508     -2549.590          48.250
G27  20887526.640   109764729.94508     -1424.410          51.000    20887526.600    85530976.37309     -1109.934          54.750
G30  24184539.240   127090604.66807      2269.906          42.500    24184539.640    99031619.12406      1768.758          37.250
R02  23912584.220   127602126.31306      2430.840          41.000    23912590.080    99246125.16606      1890.652          40.500
R09  22287113.260   119011934.33907      3777.797          45.500    22287116.480    92564845.27107      2938.285          44.250
R15  20927567.100   111830586.81508     -3536.672          49.750    20927571.760    86979369.81007     -2750.750          46.250
R16  19406656.960   103666877.25708       459.066          48.000    19406660.920    80629814.94407       357.047          45.750
R17  21732960.060   116297499.20607     -3257.500          47.750    21732963.880    90453647.78207     -2533.613          44.000
R18  19478982.840   103980165.91608      -804.277          51.000    19478987.660    80873488.52208      -625.551          49.250
R19  20973047.380   112191670.61306      2244.563          40.250    20973050.820    87260210.75707      1745.770          44.250
> 2021 01 01 00 04  0.0000000  0 19
G01  23014752.260   120943341.30307      3698.344          43.500    23014753.740    94241584.67706      2881.824          40.000
G07  22343786.780   117417385.53108       748.512          48.250    22343783.820    91494066.42207       583.254          43.750
G08  20688988.180   108721390.24808       671.031          51.000    20688988.680    84717997.46809       522.883          54.750
G10  23219190.920   122017676.56807       719.465          46.750    23219191.260    95078715.11808       560.621          51.250
G16  21881122.960   114986093.32708     -2392.809          49.250    21881120.420    89599561.89007     -1864.527          44.000
G20  23990099.660   126068834.69807     -1443.777          42.750    23990095.720    98235437.89004     -1125.023          29.250
G21  21194336.420   111377006.32008      1872.379          50.250    21194333.900    86787267.67507      1458.996          47.000
G23  24036986.980   126315227.72207     -1044.621          42.750    24036985.340    98427443.55706      -813.996          37.750
G26  24225607.620   127306467.99906     -3276.941          41.250    24225609.260    99199850.24107     -2553.465          47.500
G27  20895677.960   109807564.75608     -1431.922          51.000    20895677.760    85564354.14609     -1115.789          54.750
G30  24171620.460   127022714.67906      2255.438          41.250    24171620.480    98978717.80806      1757.480          37.250
R01  24401924.160   130442268.59105      -811.051          35.750    24401929.340   101455120.71204      -630.816          29.000
R02  23898956.300   127529404.63007      2416.500          42.250    23898961.920    99189563.79806      1879.492          37.750
R09  22265918.240   118898754.53407      3767.000          45.250    22265921.580    92476816.54407      2929.887          43.750
R15  20947464.940   111936915.01008     -3552.426          49.750    20947469.600    87062069.50307     -2762.996          45.750
R16  19404150.100   103653486.26108       433.141          48.000    19404154.100    80619399.71507       336.883          45.750
R17  21751229.720   116395263.05008     -3260.727          48.000    21751233.500    90529686.29007     -2536.125          44.000
R18  19483543.960   104004513.52208      -819.484          50.750    19483548.880    80892425.55508      -637.379          49.000
R19  20960499.160   112124546.35106      2230.020          40.250    20960502.680    87208003.02807      1734.457          44.500
> 2021 01 01 00 04 30.0000000  0 19
G01  22993655.880   120832479.36707      3691.340          43.250    22993657.440    94155198.78206      2876.363          39.750
G07  22339564.840   117395199.88808       730.059          48.000    22339562.080    91476778.89807       568.871          43.750
G08  20685178.660   108701370.62008       663.160          51.000    20685179.020    84702397.76009       516.750          54.750
G10  23215128.660   121996328.65907       703.172          46.750    23215129.160    95062080.38908       547.926          52.000
G16  21894809.480   115058016.92708     -2402.738          49.000    21894806.940    89655606.23807     -1872.266          44.000
G20  23998383.860   126112366.56307     -1459.348          42.750    23998380.800    98269358.87505     -1137.156          35.250
G21  21183686.620   111321040.40808      1858.172          49.750    21183684.240    86743657.87807      1447.926          46.500
G23  24042998.640   126346819.93107     -1061.883          42.250    24042997.200    98452060.84706      -827.445          37.250
G26  24244327.760   127404842.12406     -3281.664          41.500    24244329.180    99276505.40307     -2557.141          47.500
G27  20903869.580   109850611.71608     -1438.570          51.000    20903869.320    85597897.23709     -1120.969          54.750
G30  24158782.760   126955252.76907      2241.242          42.000    24158782.960    98926150.12606      1746.422          37.000
R01  24406534.860   130466917.10805      -832.707          33.500    24406540.560   101474291.73204      -647.664          28.500
R02  23885407.040   127457103.00106      2403.000          39.750    23885412.460    99133329.31606      1869.008          37.500
R09  22244781.260   118785884.58507      3756.996          45.750    22244784.660    92389028.80607      2922.109          44.000
R15  20967448.740   112043702.91508     -3567.316          49.750    20967453.660    87145126.74407     -2774.582          45.750
R16  19401787.040   103640862.85008       408.035          48.250    19401791.020    80609581.49807       317.355          45.750
R17  21769514.620   116493108.29608     -3262.965          48.000    21769517.980    90605788.14007     -2537.863          43.750
R18  19488188.360   104029305.80208      -833.875          51.000    19488193.340    80911708.43908      -648.574          49.000
R19  20948030.440   112057845.36106      2216.301          40.250    20948033.800    87156124.51007      1723.785          44.500
> 2021 01 01 00 05  0.0000000  0 19
G01  22972602.280   120721842.26707      3684.129          42.500    22972604.040    94068988.09806      2870.750          40.250
G07  22335451.600   117373585.61907       710.949          47.750    22335449.140    91459936.60307       553.984          44.000
G08  20681417.960   108681607.66708       654.410          50.750    20681418.220    84686998.05809       509.930          55.000
G10  23211163.840   121975493.84407       685.797          46.500    23211164.600    95045845.47508       534.387          51.500
G16  21908555.800   115130253.99308     -2413.133          49.250    21908553.300    89711894.85407     -1880.363          44.000
G20  24006762.420   126156395.91706     -1476.074          40.500    24006759.740    98303667.44406     -1150.191          38.500
G21  21173121.100   111265518.67508      1843.371          50.500    21173118.460    86700394.19607      1436.391          46.750
G23  24049113.120   126378952.21007     -1079.891          42.000    24049111.860    98477099.02006      -841.473          36.500
G26  24263076.380   127503366.20306     -3286.910          40.500    24263077.520    99353277.41508     -2561.230          48.500
G27  20912102.380   109893875.72108     -1445.688          51.000    20912102.220    85631609.44309     -1126.512          54.750
G30  24146028.260   126888226.61507      2226.852          42.000    24146028.160    98873921.91506      1735.207          37.750
R01  24411273.360   130492246.89305      -856.738          32.500    24411278.960   101493992.69205      -666.359          31.750
R02  23871937.980   127385231.15106      2388.734          41.250    23871943.660    99077429.03706      1857.914          38.750
R09  22223704.320   118673334.31607      3746.367          45.750    22223707.480    92301489.71007      2913.840          44.000
R15  20987519.200   112150953.05008     -3582.750          49.500    20987523.800    87228543.53207     -2786.586          46.000
R16  19399569.040   103629013.87208       381.984          48.000    19399572.880    80600365.61807       297.094          46.000
R17  21787815.040   116591038.76307     -3265.984          47.250    21787818.460    90681956.25307     -2540.215          44.500
R18  19492916.680   104054545.82008      -848.785          50.750    19492921.560    80931339.57708      -660.172          49.250
R19  20935641.440   111991573.66106      2201.832          40.000    20935644.940    87104579.88607      1712.535          44.500
> 2021 01 01 00 05 30.0000000  0 19
G01  22951591.840   120611431.98007      3676.848          43.750    22951593.640    93982954.12906      2865.074          40.250
G07  22331447.200   117352543.08807       692.117          47.750    22331445.000    91443539.81507       539.312          44.000
G08  20677705.920   108662100.70708       646.160          51.000    20677706.180    84671797.83409       503.496          54.750
G10  23207296.980   121955173.20807       668.953          46.750    23207297.320    95030011.21908       521.258          50.750
G16  21922361.660   115202803.64608     -2423.277          49.250    21922359.040    89768427.04507     -1888.273          44.000
G20  24015234.580   126200921.10406     -1492.098          39.500    24015232.640    98338362.31406     -1162.676          37.750
G21  21162640.200   111210441.74908      1828.684          49.500    21162637.880    86657477.13907      1424.949          47.000
G23  24055330.160   126411623.39107     -1097.809          42.000    24055328.980    98502557.08306      -855.434          38.000
G26  24281853.120   127602038.58806     -3291.273          40.000    24281854.300    99430164.98208     -2564.633          49.000
G27  20920376.220   109937355.71108     -1452.586          50.750    20920376.240    85665489.94909     -1131.891          54.750
G30  24133356.620   126821638.04807      2212.508          43.000    24133356.840    98822034.74406      1724.027          36.500
R01  24416138.700   130518256.26505      -878.824          32.750    24416144.500   101514222.22004      -683.539          27.500
R02  23858549.960   127313792.23006      2374.457          41.750    23858556.140    99021865.42306      1846.793          36.500
R09  22202687.680   118561106.93807      3735.629          46.000    22202690.800    92214201.76007      2905.484          44.000
R15  21007675.600   112258662.12908     -3597.730          50.000    21007680.200    87312317.24707     -2798.234          45.750
R16  19397496.040   103617940.66808       356.500          48.000    19397500.000    80591753.11607       277.273          46.250
R17  21806131.260   116689051.61707     -3268.324          47.500    21806134.760    90758188.44607     -2542.035          44.250
R18  19497728.440   104080231.29008      -863.324          51.000    19497733.260    80951317.16508      -671.477          49.250
R19  20923332.840   111925731.33106      2187.602          40.500    20923336.280    87053369.22207      1701.469          44.750
> 2021 01 01 00 06  0.0000000  0 19
G01  22930624.280   120501246.80907      3668.688          44.000    22930626.160    93897095.54906      2858.719          40.500
G07  22327551.000   117332068.92607       672.723          47.500    22327549.040    91427585.91607       524.195          44.500
G08  20674041.760   108642845.23008       637.453          50.750    20674042.040    84656793.57409       496.711          55.000
G10  23203527.520   121935364.11307       651.410          47.000    23203527.620    95014575.55408       507.590          51.500
G16  21936226.140   115275661.40008     -2434.004          49.000    21936223.320    89825199.31207     -1896.629          43.750
G20  24023799.980   126245936.58406     -1508.844          38.750    24023799.220    98373439.28106     -1175.727          36.750
G21  21152243.580   111155806.48308      1813.508          50.250    21152240.960    86614904.19207      1413.117          46.750
G23  24061648.660   126444828.75906     -1116.195          40.500    24061647.720    98528431.37706      -869.762          36.000
G26  24300656.900   127700854.19106     -3296.926          39.250    24300658.400    99507164.13008     -2569.035          48.750
G27  20928690.340   109981046.95408     -1460.145          50.750    20928690.380    85699535.06009     -1137.777          54.750
G30  24120768.320   126755485.14207      2197.613          42.000    24120768.340    98770487.00305      1712.422          35.500
R01  24421130.760   130544940.52406      -900.824          36.000    24421136.780   101534976.68805      -700.645          30.750
R02  23845243.960   127242787.23607      2359.332          43.000    23845250.080    98966639.33106      1835.031          37.250
R09  22181731.780   118449202.80007      3724.375          46.250    22181734.560    92127165.19807      2896.730          44.000
R15  21027916.260   112366822.58608     -3613.152          50.000    21027920.960    87396442.02307     -2810.234          45.750
R16  19395567.740   103607640.14508       330.211          48.000    19395571.740    80583741.58707       256.828          45.750
R17  21824461.640   116787140.81408     -3271.105          48.000    21824464.940    90834480.02907     -2544.191          43.750
R18  19502622.440   104106355.83208      -878.363          51.000    19502627.280    80971636.25308      -683.176          49.000
R19  20911103.840   111860314.57606      2173.387          40.000    20911107.280    87002489.56007      1690.410          44.500
> 2021 01 01 00 06 30.0000000  0 19
G01  22909700.340   120391290.78307      3661.340          43.750    22909702.200    93811415.54506      2852.992          38.250
G07  22323763.560   117312165.45308       653.820          48.000    22323761.640    91412076.70207       509.465          43.750
G08  20670425.820   108623843.53908       629.141          51.000    20670426.120    84641987.06609       490.238          54.750
G10  23199856.220   121916069.84807       634.426          47.500    23199856.420    94999541.06008       494.355          51.750
G16  21950149.280   115348828.23908     -2444.051          49.000    21950146.600    89882212.42807     -1904.457          43.500
G20  24032459.780   126291443.69606     -1525.004          41.750    24032458.840    98408899.31905     -1188.320          33.500
G21  21141931.100   111101615.36408      1798.930          50.000    21141928.780    86572677.36707      1401.762          47.250
G23  24068068.920   126478569.42406     -1133.543          41.250    24068068.200    98554722.76906      -883.285          36.500
G26  24319488.160   127799813.54006     -3301.152          40.250    24319489.900    99584275.30507     -2572.328          47.500
G27  20937044.980   110024950.65408     -1467.027          51.000    20937044.980    85733745.73009     -1143.141          54.750
G30  24108263.720   126689771.89007      2183.141          42.250    24108263.300    98719281.84705      1701.148          34.250
R01  24426249.040   130572300.67706      -923.215          36.000    24426255.020   101556256.82304      -718.059          29.750
R02  23832020.120   127172220.86507      2344.727          43.250    23832026.080    98911754.34105      1823.668          35.250
R09  22160837.260   118337627.56307      3713.691          46.250    22160840.160    92040384.47007      2888.426          43.750
R15  21048241.420   112475433.42208     -3627.773          49.500    21048246.080    87480917.10907     -2821.605          45.000
R16  19393784.680   103598115.56408       304.469          48.000    19393788.720    80576333.57007       236.805          45.750
R17  21842805.960   116885305.82107     -3273.520          46.750    21842809.540    90910830.56507     -2546.074          43.750
R18  19507598.700   104132919.34408      -892.734          50.750    19507603.500    80992296.75208      -694.352          49.000
R19  20898954.920   111795325.31606      2159.094          40.250    20898958.300    86951942.38907      1679.297          44.500
> 2021 01 01 00 07  0.0000000  0 19
G01  22888820.300   120281565.49507      3653.488          44.000    22888822.140    93725915.34006      2846.875          39.500
G07  22320084.760   117292832.47708       634.566          48.000    22320082.760    91397012.03707       494.465          44.250
G08  20666857.940   108605094.58708       620.535          51.000    20666858.260    84627377.49909       483.535          54.750
G10  23196282.800   121897291.01007       617.195          46.750    23196283.400    94984908.21608       480.930          51.750
G16  21964130.800   115422302.49408     -2454.270          48.750    21964128.280    89939465.08607     -1912.422          43.500
G20  24041213.260   126337440.21307     -1541.660          42.750    24041211.260    98444740.78205     -1201.297          35.000
G21  21131703.720   111047868.37808      1784.008          50.500    21131701.160    86530796.58607      1390.133          46.500
G23  24074591.060   126512843.83006     -1151.566          41.750    24074590.480    98581430.09206      -897.328          37.500
G26  24338346.600   127898914.68906     -3305.902          39.750    24338348.340    99661496.97707     -2576.027          47.750
G27  20945439.860   110069065.35608     -1474.223          51.000    20945439.720    85768120.82409     -1148.746          54.750
G30  24095842.560   126624499.50707      2168.086          42.500    24095842.400    98668420.28106      1689.418          37.500
R01  24431493.260   130600334.98205      -945.820          35.000    24431499.300   101578061.32605      -735.633          34.000
R02  23818878.980   127102097.07207      2329.750          42.000    23818884.660    98857213.66006      1812.027          37.750
R09  22140005.020   118226384.67907      3702.277          46.000    22140007.860    91953862.23907      2879.551          43.750
R15  21068650.000   112584490.38108     -3642.918          49.500    21068654.640    87565739.18807     -2833.383          46.250
R16  19392147.020   103589367.58007       278.430          47.750    19392151.080    80569529.57807       216.551          46.000
R17  21861164.040   116983543.75507     -3275.992          47.500    21861167.340    90987237.83807     -2547.992          43.500
R18  19512656.620   104159918.77108      -907.480          50.750    19512661.380    81013296.30508      -705.816          49.250
R19  20886885.800   111730762.91606      2144.766          40.000    20886889.000    86901727.22407      1668.152          44.750
> 2021 01 01 00 07 30.0000000  0 19
G01  22867984.520   120172072.90607      3646.098          44.000    22867986.360    93640596.46506      2841.113          40.750
G07  22316514.520   117274070.32708       616.070          48.000    22316512.400    91382392.17407       480.055          46.250
G08  20663338.060   108586597.73408       612.484          51.000    20663338.420    84612964.37509       477.262          54.750
G10  23192807.140   121879028.63707       600.109          46.250    23192808.100    94970677.81808       467.613          52.250
G16  21978170.760   115496083.32908     -2464.352          48.750    21978168.340    89996956.63707     -1920.277          43.500
G20  24050059.560   126383924.32007     -1557.473          43.000    24050056.420    98480962.22805     -1213.613          32.500
G21  21121560.300   110994565.96208      1769.516          50.250    21121557.840    86489262.25607      1378.844          47.000
G23  24081214.840   126547650.80907     -1168.824          42.000    24081213.640    98608552.43205      -910.777          35.500
G26  24357231.460   127998156.05706     -3310.160          40.000    24357233.480    99738827.89708     -2579.348          49.000
G27  20953874.680   110113390.09808     -1480.898          50.750    20953874.460    85802659.57809     -1153.945          54.750
G30  24083505.740   126559669.92407      2153.574          42.500    24083505.940    98617903.73305      1678.109          35.250
R01  24436863.540   130629042.27305      -968.020          35.000    24436869.340   101600389.22605      -752.906          30.000
R02  23805821.100   127032419.47506      2315.344          41.500    23805827.020    98803020.01706      1800.824          39.500
R09  22119235.780   118115477.87707      3691.441          46.500    22119238.660    91867601.38707      2871.117          44.250
R15  21089141.220   112693990.10508     -3657.164          50.000    21089146.060    87650905.60707     -2844.461          45.250
R16  19390654.920   103581396.77408       252.895          48.250    19390658.880    80563330.05807       196.691          45.750
R17  21879535.340   117081852.44707     -3277.910          47.000    21879538.820    91063700.13407     -2549.488          43.750
R18  19517795.700   104187351.38508      -921.520          50.750    19517800.460    81034632.79008      -716.742          49.000
R19  20874896.260   111666627.86806      2130.809          40.000    20874899.520    86851844.45107      1657.297          44.500
> 2021 01 01 00 08  0.0000000  0 19
G01  22847192.740   120062811.72207      3637.867          43.750    22847194.700    93555457.89706      2834.699          40.250
G07  22313052.440   117255876.22508       596.762          48.250    22313050.120    91368214.94707       465.004          44.000
G08  20659865.440   108568349.54208       604.035          51.000    20659865.920    84598745.00509       470.672          54.750
G10  23189429.460   121861280.54107       583.016          46.250    23189430.300    94956848.12408       454.293          51.000
G16  21992268.360   115570166.67208     -2474.617          49.000    21992265.960    90054683.92007     -1928.273          43.500
G20  24058997.480   126430891.73806     -1573.875          41.000    24058993.400    98517560.29205     -1226.395          31.000
G21  21111501.580   110941705.26008      1754.516          50.000    21111499.100    86448072.09307      1367.152          47.000
G23  24087939.240   126582986.06207     -1186.629          43.250    24087937.260    98636086.42405      -924.645          35.750
G26  24376142.400   128097532.91906     -3314.668          40.500    24376144.220    99816264.40108     -2582.859          48.000
G27  20962348.640   110157920.72708     -1487.891          50.750    20962348.320    85837358.77809     -1159.398          54.750
G30  24071253.100   126495281.67707      2139.031          42.250    24071253.160    98567731.03805      1666.773          35.250
R01  24442359.140   130658417.79006      -990.785          38.250    24442364.940   101623236.84005      -770.609          33.750
R02  23792847.180   126963187.92807      2300.340          42.000    23792852.780    98749173.26306      1789.145          38.000
R09  22098529.340   118004907.40107      3680.094          46.500    22098532.320    91781602.15107      2862.293          43.500
R15  21109714.360   112803926.10808     -3671.977          49.250    21109719.120    87736411.37707     -2855.984          45.750
R16  19389307.860   103574200.74407       226.867          47.750    19389311.760    80557733.13707       176.449          45.750
R17  21897918.900   117180226.14607     -3280.195          47.500    21897922.340    91140213.00507     -2551.266          43.500
R18  19523014.840   104215211.58908      -935.859          51.000    19523019.560    81056301.83608      -727.895          49.000
R19  20862985.940   111602916.64506      2116.383          39.750    20862989.320    86802291.29807      1646.070          44.500
> 2021 01 01 00 08 30.0000000  0 19
G01  22826446.720   119953790.88507      3630.246          44.000    22826448.660    93470506.60306      2828.762          40.750
G07  22309699.720   117238257.21308       577.914          48.000    22309697.380    91354485.83907       450.324          44.500
G08  20656441.440   108550356.56908       595.812          51.000    20656442.000    84584724.50409       464.266          54.750
G10  23186151.500   121844054.75307       565.914          46.750    23186152.220    94943425.43408       440.973          51.250
G16  22006424.680   115644558.51808     -2484.531          48.750    22006422.400    90112651.58807     -1936.004          44.000
G20  24068027.480   126478347.68006     -1589.906          38.500    24068024.420    98554538.95005     -1238.891          33.250
G21  21101527.680   110889293.45208      1739.871          50.500    21101525.140    86407231.73707      1355.738          47.000
G23  24094765.340   126618855.45207     -1204.242          43.250    24094762.840    98664036.62705      -938.371          34.500
G26  24395080.120   128197050.81206     -3319.297          39.750    24395081.820    99893810.79908     -2586.469          48.500
G27  20970862.780   110202663.20508     -1494.609          50.750    20970862.520    85872223.04309     -1164.629          54.750
G30  24059086.060   126431343.55306      2124.266          41.750    24059086.040    98517909.11506      1655.273          36.500
R01  24447980.460   130688467.33605     -1012.727          35.250    24447986.060   101646608.71505      -787.676          30.250
R02  23779958.920   126894413.50807      2285.141          42.500    23779964.600    98695682.07206      1777.332          38.500
R09  22077888.220   117894684.47007      3668.602          46.500    22077891.120    91695873.21507      2853.355          44.250
R15  21130369.800   112914301.68808     -3686.063          49.500    21130374.120    87822259.06907     -2866.938          44.750
R16  19388107.260   103567787.66708       201.172          48.000    19388111.300    80552745.18007       156.465          46.000
R17  21916315.180   117278669.57607     -3282.172          46.750    21916319.080    91216780.07807     -2552.805          44.000
R18  19528314.920   104243503.88508      -949.895          51.000    19528319.780    81078306.95108      -738.812          49.250
R19  20851156.460   111539636.40906      2102.371          40.750    20851159.740    86753073.36807      1635.176          44.750
> 2021 01 01 00 09  0.0000000  0 19
G01  22805747.140   119845013.51607      3622.090          44.000    22805748.880    93385745.03006      2822.406          40.250
G07  22306456.580   117221214.61808       558.793          48.250    22306454.200    91341205.88707       435.422          43.750
G08  20653066.200   108532619.71208       587.363          51.000    20653066.760    84570903.57509       457.684          54.750
G10  23182973.380   121827353.31707       548.105          46.500    23182974.180    94930411.33008       427.094          52.250
G16  22020639.660   115719258.85808     -2494.660          48.750    22020637.600    90170859.62607     -1943.895          43.000
G20  24077149.680   126526291.63906     -1606.184          38.000    24077148.380    98591897.83205     -1251.574          35.750
G21  21091639.980   110837332.14708      1724.852          50.000    21091637.500    86366742.41907      1344.039          47.250
G23  24101692.940   126655258.87707     -1222.066          43.500    24101689.920    98692402.97106      -952.258          36.000
G26  24414044.320   128296709.15506     -3323.465          39.250    24414045.920    99971466.61908     -2589.715          48.250
G27  20979417.260   110247617.72708     -1501.742          50.750    20979417.120    85907252.53209     -1170.191          54.750
G30  24047005.160   126367858.32907      2108.980          42.500    24047005.620    98468440.11306      1643.359          38.750
R01  24453727.700   130719190.70505     -1035.375          34.250    24453733.260   101670504.67905      -805.285          33.250
R02  23767156.820   126826100.75207      2269.535          43.250    23767163.120    98642549.92006      1765.191          37.500
R09  22057313.000   117784813.78507      3657.020          46.750    22057316.060    91610418.24607      2844.348          44.750
R15  21151106.780   113025114.41808     -3700.723          50.000    21151111.600    87908446.69807     -2878.344          46.000
R16  19387053.640   103562159.30008       174.941          48.000    19387057.640    80548367.56407       136.062          46.000
R17  21934724.620   117377181.44307     -3284.477          47.750    21934728.440    91293400.40607     -2554.594          43.250
R18  19533695.660   104272226.81708      -964.301          51.000    19533700.640    81100647.01108      -750.012          49.250
R19  20839407.740   111476788.09106      2088.203          40.500    20839410.780    86704191.35107      1624.156          44.750
> 2021 01 01 00 09 30.0000000  0 19
G01  22785093.220   119736476.87007      3613.949          44.500    22785095.060    93301171.02406      2816.063          40.250
G07  22303322.260   117204743.89908       539.559          48.000    22303319.780    91328371.54607       420.430          43.750
G08  20649738.740   108515133.73208       578.605          51.000    20649739.280    84557278.13709       450.859          54.750
G10  23179894.100   121811172.60607       530.277          45.750    23179895.420    94917803.00908       413.203          52.500
G16  22034912.300   115794261.82208     -2505.078          48.750    22034910.020    90229303.48607     -1952.012          43.500
G20  24086364.580   126574717.33706     -1622.168          40.750    24086363.860    98629632.06106     -1264.027          37.000
G21  21081836.840   110785817.00608      1709.590          50.750    21081834.240    86326600.76507      1332.145          46.750
G23  24108721.080   126692190.60707     -1240.113          42.500    24108718.220    98721180.94706      -966.320          36.750
G26  24433034.120   128396501.81606     -3328.656          39.500    24433035.640   100049227.13307     -2593.762          46.750
G27  20988011.100   110292778.69208     -1508.969          50.750    20988010.980    85942442.88609     -1175.824          54.750
G30  24035009.880   126304823.09606      2093.598          41.750    24035010.700    98419321.76406      1631.371          37.000
R01  24459599.700   130750581.70605     -1057.980          34.750    24459605.900   101694919.86305      -822.879          31.750
R02  23754441.740   126758248.77007      2254.184          43.000    23754447.960    98589776.15906      1753.250          39.250
R09  22036803.400   117675294.39707      3644.660          46.750    22036806.580    91525236.50607      2834.730          44.500
R15  21171924.100   113136356.40908     -3715.332          49.250    21171928.820    87994968.25907     -2889.707          45.250
R16  19386146.120   103557311.81208       148.375          48.000    19386150.180    80544597.28707       115.398          46.250
R17  21953145.580   117475754.74207     -3286.957          47.500    21953149.020    91370068.53307     -2556.527          44.000
R18  19539155.760   104301373.22008      -978.687          51.000    19539160.820    81123316.43608      -761.207          49.250
R19  20827738.760   111414366.78806      2073.375          40.750    20827741.860    86655641.48407      1612.625          45.000
> 2021 01 01 00 10  0.0000000  0 19
G01  22764485.280   119628181.37007      3605.551          44.750    22764487.140    93216784.91406      2809.520          40.000
G07  22300296.500   117188843.75408       520.312          48.000    22300294.060    91315981.81707       405.523          43.000
G08  20646458.680   108497896.70608       570.227          51.250    20646459.220    84543846.69209       444.332          54.750
G10  23176913.800   121795511.93307       513.246          46.750    23176915.440    94905599.92808       399.934          52.000
G16  22049242.100   115869565.09208     -2515.156          49.000    22049239.760    90287981.35807     -1959.863          43.000
G20  24095671.400   126623621.46407     -1638.141          42.750    24095670.440    98667739.15406     -1276.473          37.250
G21  21072118.460   110734746.73708      1694.805          50.000    21072116.020    86286805.76107      1320.629          47.250
G23  24115848.760   126729647.73806     -1257.359          41.500    24115846.360    98750368.33206      -979.762          36.500
G26  24452048.920   128496425.70006     -3332.941          40.250    24452050.680   100127089.89407     -2597.102          46.500
G27  20996643.820   110338143.51908     -1515.648          51.000    20996643.620    85977792.08409     -1181.027          54.750
G30  24023100.420   126242238.05907      2078.574          43.250    24023101.080    98370554.21706      1619.664          36.000
R01  24465596.320   130782637.41406     -1080.004          36.750    24465602.500   101719852.02104      -840.008          28.750
R02  23741812.980   126690859.47407      2238.535          42.000    23741819.040    98537362.25106      1741.082          38.250
R09  22016360.200   117566128.60907      3632.762          46.500    22016363.200    91440329.78007      2825.477          44.250
R15  21192821.020   113248022.06008     -3729.316          49.250    21192825.760    88081819.30007     -2900.582          45.750
R16  19385384.560   103553243.85808       122.488          48.000    19385388.680    80541433.32007        95.266          46.000
R17  21971576.840   117574385.52307     -3288.652          46.250    21971580.860    91446781.32807     -2557.844          44.500
R18  19544694.340   104330939.09208      -992.527          50.750    19544699.520    81146312.10308      -771.969          49.250
R19  20816149.120   111352370.73506      2059.398          40.500    20816152.360    86607422.35007      1601.754          45.000
> 2021 01 01 00 10 30.0000000  0 19
G01  22743924.420   119520133.58407      3598.113          44.250    22743926.260    93132591.83406      2803.641          40.250
G07  22297380.240   117173519.03608       501.574          48.250    22297377.960    91304040.47307       390.832          42.750
G08  20643226.840   108480912.95908       562.242          51.000    20643227.360    84530612.60409       438.105          54.750
G10  23174034.240   121780376.95707       496.105          47.500    23174034.920    94893806.43608       386.570          50.750
G16  22063629.660   115945171.98908     -2524.785          48.500    22063627.360    90346895.81207     -1967.367          43.250
G20  24105070.020   126673007.36007     -1653.926          43.000    24105068.220    98706221.67506     -1288.773          36.000
G21  21062485.980   110684126.63608      1680.152          50.750    21062483.300    86247361.51307      1309.207          46.750
G23  24123076.820   126767633.80406     -1274.492          40.500    24123075.380    98779967.82706      -993.117          39.250
G26  24471089.460   128596483.84306     -3336.809          40.000    24471091.180   100205057.27207     -2600.113          47.250
G27  21005316.100   110383716.04308     -1522.160          50.750    21005315.800    86013303.13509     -1186.102          54.750
G30  24011277.960   126180109.58207      2064.117          42.250    24011277.980    98322142.40505      1608.398          35.750
R01  24471717.780   130815360.97305     -1101.484          32.500    24471723.960   101745303.77805      -856.707          30.750
R02  23729272.620   126623941.00306      2222.875          40.500    23729278.340    98485314.53706      1728.898          38.000
R09  21995984.780   117457324.78207      3621.148          46.750    21995987.800    91355704.60207      2816.449          44.500
R15  21213797.180   113360112.84108     -3743.176          49.750    21213801.680    88169001.02507     -2911.359          45.000
R16  19384770.120   103549961.59507        96.766          47.750    19384774.300    80538880.44307        75.258          45.750
R17  21990019.620   117673076.27507     -3290.184          47.750    21990023.680    91523540.78107     -2559.031          43.250
R18  19550311.940   104360926.50208     -1006.191          50.750    19550317.080    81169635.64308      -782.594          49.000
R19  20804639.980   111290804.97906      2045.410          40.250    20804643.240    86559537.90207      1590.875          44.750
> 2021 01 01 00 11  0.0000000  0 18
G01  22723410.960   119412334.44307      3589.020          44.250    22723412.800    93048592.50506      2796.633          40.250
G07  22294573.180   117158768.62908       481.992          48.000    22294571.080    91292546.64007       375.574          43.750
G08  20640042.880   108464180.77608       553.512          51.000    20640043.360    84517574.54009       431.309          54.750
G10  23171254.520   121765767.44107       478.176          47.250    23171254.140    94882422.35308       372.602          50.500
G16  22078074.500   116021080.32508     -2535.543          48.500    22078072.080    90406045.16007     -1975.750          42.500
G20  24114559.360   126722872.23406     -1669.914          41.500    24114556.860    98745077.44105     -1301.227          32.250
G21  21052938.540   110633955.74508      1664.793          50.250    21052935.980    86208267.32507      1297.242          47.500
G23  24130404.840   126806146.43206     -1292.469          39.250    24130404.480    98809977.64006     -1007.121          37.750
G26  24490155.060   128696673.52206     -3342.234          39.750    24490156.820   100283127.15507     -2604.344          47.750
G27  21014027.500   110429494.15008     -1529.512          50.750    21014027.100    86048974.38509     -1191.828          54.750
G30  23999542.180   126118438.27807      2047.879          42.500    23999541.820    98274086.83506      1595.750          37.750
R02  23716820.860   126557495.61207      2206.543          43.000    23716826.440    98433634.80106      1716.195          37.500
R09  21975677.460   117348885.52507      3608.523          46.750    21975680.580    91271362.96607      2806.625          44.500
R15  21234851.940   113472623.81408     -3757.316          49.250    21234856.860    88256509.51107     -2922.359          45.500
R16  19384302.520   103547463.73808        70.160          48.000    19384306.580    80536937.66207        54.570          46.000
