     3.02           OBSERVATION DATA    M: MIXED            RINEX VERSION / TYPE
HEADER CHANGED BY EPN CB ON 2022-01-08                      COMMENT
TO BE CONFORM WITH THE INFORMATION IN                       COMMENT
ftp://epncb.oma.be/pub/station/log/larm.log                 COMMENT
                                                            COMMENT
Spider V7.1.1.7438  DGS                 20220102 091518 UTC PGM / RUN BY / DATE
THIS RINEX FILE IS CREATED FROM LB2 DATA                    COMMENT
SNR is mapped to RINEX snr flag value [1-9]                 COMMENT
LX:     < 12dBHz -> 1; 12-17dBHz -> 2; 18-23dBHz -> 3       COMMENT
       24-29dBHz -> 4; 30-35dBHz -> 5; 36-41dBHz -> 6       COMMENT
       42-47dBHz -> 7; 48-53dBHz -> 8; >= 54dBHz -> 9       COMMENT
Product                                                     COMMENT
LARM                                                        MARKER NAME
12610M002                                                   MARKER NUMBER
Dr. Christos PikridaDepartment of Geodesy and Surveying     OBSERVER / AGENCY
495318              LEICA GRX1200+GNSS  9.20/6.405          REC # / TYPE / VERS
09120015            LEIAR25         LEIT                    ANT # / TYPE
  4549397.1706  1874003.1392  4045167.6109                  APPROX POSITION XYZ
        0.1900        0.0000        0.0000                  ANTENNA: DELTA H/E/N
G   16 C1C L1C D1C S1C C2S L2S D2S S2S C2W L2W D2W S2W C5Q  SYS / # / OBS TYPES
       L5Q D5Q S5Q                                          SYS / # / OBS TYPES
R   12 C1C L1C D1C S1C C2P L2P D2P S2P C2C L2C D2C S2C      SYS / # / OBS TYPES
DBHZ                                                        SIGNAL STRENGTH UNIT
    30.000                                                  INTERVAL
  2022    01    01    00    00    0.0000000     GPS         TIME OF FIRST OBS
  2022    01    01    11    56    0.0000000     GPS         TIME OF LAST OBS
     0                                                      RCV CLOCK OFFS APPL
G L2S -0.25000                                              SYS / PHASE SHIFT
G L2X -0.25000                                              SYS / PHASE SHIFT
R L2P  0.25000                                              SYS / PHASE SHIFT
E L8Q -0.25000                                              SYS / PHASE SHIFT
 24 R01  1 R02 -4 R03  5 R04  6 R05  1 R06 -4 R07  5 R08  6 GLONASS SLOT / FRQ #
    R09 -2 R10 -7 R11  0 R12 -1 R13 -2 R14 -7 R15  0 R16 -1 GLONASS SLOT / FRQ #
    R17  4 R18 -3 R19  3 R20  2 R21  4 R22 -3 R23  3 R24  2 GLONASS SLOT / FRQ #
 C1C  -71.940 C1P  -71.940 C2C  -71.940 C2P  -71.940        GLONASS COD/PHS/BIS
    18    18  1929     7                                    LEAP SECONDS
                                                            END OF HEADER
> 2022 01 01 00 00  0.0000000  0 20
G01  25256919.479   132726007.43706      2985.279          41.250    25256919.184   103422857.45705      2326.190          35.500    25256918.556   103422850.45105      2326.190          33.000    25256916.851    99113567.95207      2229.237          43.000
G08  21340320.966   112144152.71208      2022.266          48.750    21340319.768    87385057.98408      1575.793          49.250    21340318.646    87385050.98208      1575.793          48.750    21340317.689    83743999.46908      1510.048          52.250
G10  20793961.743   109273022.30708     -1116.193          50.500    20793959.410    85147813.55708      -869.761          50.250    20793959.264    85147816.55308      -869.761          50.500    20793957.471    81599964.23908      -833.679          52.750
G16  22993069.402   120829389.67408     -3114.412          48.500                                                                    22993064.246    94152755.83706     -2426.816          41.500
G18  24551364.904   129018324.43507     -2749.357          43.000    24551361.665   100533768.55007     -2142.356          43.250    24551361.431   100533745.56006     -2142.356          37.500    24551365.008    96344867.06008     -2053.132          48.000
G21  23157762.089   121694870.05507      1958.313          47.250                                                                    23157756.058    94827138.58606      1525.959          39.500
G23  22545939.123   118479747.10908     -2908.139          48.250    22545934.205    92321882.06107     -2266.082          46.250    22545933.548    92321880.05907     -2266.081          42.750    22545937.951    88475138.59008     -2171.773          50.750
G26  25140270.620   132113013.64307     -3343.513          45.250    25140266.370   102945194.62306     -2605.334          37.250    25140265.185   102945191.61207     -2605.332          44.000    25140267.439    98655801.19507     -2496.779          45.500
G27  20197764.783   106139989.82208       -61.740          50.500    20197761.927    82706477.87308       -48.110          50.750    20197761.187    82706472.87308       -48.110          50.500    20197761.251    79260373.33508       -46.198          53.000
G32  23129827.321   121548057.36008      2846.634          49.500    23129824.880    94712761.14407      2218.154          44.250    23129823.529    94712764.14508      2218.154          49.500    23129823.752    90766400.17208      2125.682          48.750
R01  20178900.304   107867805.56107      2831.721          47.750    20178904.049    83897193.73306      2202.449          41.750
R02  24461977.145   130533798.15206      4518.124          37.750    24461978.289   101526293.14315      3514.094          32.000
R07  23204411.304   124215039.78807     -3812.518          45.750    23204411.410    96611694.83406     -2965.293          40.750
R08  20057766.426   107408436.54808      -972.220          48.250    20057765.269    83539894.97807      -756.173          47.000
R14  22834405.102   121720222.51407     -2419.615          47.750    22834408.580    94671277.28806     -1881.923          39.750
R15  23346196.579   124754984.63407       536.163          47.750    23346197.061    97031658.45706       417.014          38.750
R17  24321801.601   130150868.05407      3204.544          44.250    24321801.763   101228455.47006      2492.423          37.000
R22  23727119.582   126656974.37706     -2852.996          36.250
R23  19917214.209   106543710.60407      -349.495          47.750
R24  20539559.828   109834276.24408      2070.132          50.000    20539560.445    85426668.79007      1610.104          46.000
> 2022 01 01 00 00 30.0000000  0 20
G01  25239882.160   132636474.97506      2982.762          38.500    25239881.538   103353091.86306      2324.233          36.250    25239881.838   103353084.87505      2324.236          35.250    25239879.387    99046709.25307      2227.584          42.500
G08  21328812.767   112083677.59308      2008.459          48.500    21328811.748    87337934.53508      1565.032          48.750    21328810.687    87337927.53308      1565.032          48.750    21328809.546    83698839.48108      1499.938          52.250
G10  20800378.929   109306746.06108     -1132.659          50.250    20800376.810    85174091.79908      -882.592          50.000    20800376.687    85174094.79408      -882.592          50.250    20800374.726    81625147.55208      -845.821          52.750
G16  23010875.159   120922957.37508     -3124.037          48.000                                                                    23010869.408    94225665.71806     -2434.317          40.500
G18  24567066.368   129100835.06107     -2752.000          43.500    24567062.905   100598062.53407     -2144.417          42.750    24567062.630   100598039.53506     -2144.414          39.000    24567066.427    96406482.11407     -2055.250          47.750
G21  23146595.264   121636187.30807      1953.198          47.000                                                                    23146589.098    94781411.78206      1521.973          39.500
G23  22562565.669   118567120.88308     -2917.523          48.000    22562560.949    92389965.52007     -2273.395          46.000    22562560.331    92389963.52007     -2273.395          42.250    22562564.529    88540385.22908     -2178.630          50.750
G26  25159349.924   132213276.52906     -3341.125          38.750    25159346.830   103023321.41506     -2603.481          41.750    25159346.091   103023318.42006     -2603.483          38.750    25159346.759    98730672.95106     -2495.485          40.750
G27  20198168.088   106142110.36008       -80.229          50.250    20198165.489    82708130.23608       -62.518          50.500    20198164.788    82708125.24108       -62.518          50.000    20198164.870    79261956.85008       -59.952          53.000
G32  23113600.880   121462786.61908      2837.462          49.000    23113598.523    94646316.42507      2211.010          44.500    23113597.271    94646319.42408      2211.008          49.000    23113597.365    90702723.97108      2118.811          49.250
R01  20163070.383   107783184.65508      2808.923          48.250    20163073.968    83831377.48107      2184.719          42.000
R02  24436575.660   130398249.61607      4517.921          43.500    24436575.927   101420866.44305      3513.927          32.250
R07  23225812.507   124329600.94407     -3825.415          46.750    23225812.409    96700797.94706     -2975.323          40.750
R08  20063289.704   107438014.04308     -1000.274          48.500    20063288.868    83562899.69707      -777.992          47.250
R14  22848071.142   121793070.38408     -2437.706          48.000    22848074.618    94727936.71206     -1895.994          39.750
R15  23343257.660   124739278.68908       510.184          48.000    23343258.199    97019442.71506       396.811          38.750
R17  24303829.219   130054695.42707      3206.252          43.750    24303829.517   101153654.56106      2493.751          36.000
R22  23743174.138   126742675.15705     -2861.068          35.250
R23  19919209.344   106554382.35808      -362.667          48.000
R24  20527966.244   109772280.54608      2062.155          50.250    20527967.027    85378449.91407      1603.897          46.000
> 2022 01 01 00 01  0.0000000  0 20
G01  25222850.039   132546969.73107      2983.194          42.750    25222849.061   103283347.53206      2324.568          39.750    25222848.880   103283340.54006      2324.566          36.750    25222847.330    98979870.92707      2227.462          44.000
G08  21317373.508   112023563.22508      1997.799          50.250    21317372.350    87291092.17408      1556.726          49.000    21317371.266    87291085.17208      1556.726          50.500    21317370.169    83653948.90708      1491.686          52.500
G10  20806879.364   109340906.67308     -1146.089          51.250    20806877.411    85200710.45408      -893.056          50.250    20806877.311    85200713.45208      -893.056          51.500    20806875.107    81650657.09908      -855.894          52.750
G16  23028725.378   121016759.56408     -3130.610          49.500                                                                    23028719.148    94298758.32206     -2439.437          39.750
G18  24582774.049   129183377.91807     -2752.135          46.000    24582770.306   100662381.62107     -2144.521          43.000    24582769.925   100662358.62705     -2144.519          34.750    24582773.747    96468121.23007     -2055.209          47.750
G21  23135448.147   121577608.27908      1950.875          48.750                                                                    23135441.722    94735765.79806      1520.162          38.000
G23  22579235.165   118654720.27008     -2923.821          49.250    22579230.665    92458224.78007     -2278.303          46.750    22579230.031    92458222.78006     -2278.302          41.500    22579234.006    88605800.37108     -2183.472          50.750
G26  25178406.886   132313421.47807     -3336.193          47.000    25178404.440   103101356.29805     -2599.634          34.500    25178404.118   103101353.32406     -2599.630          41.000    25178404.143    98805456.50107     -2491.504          46.500
G27  20198667.485   106144735.79908       -95.942          51.250    20198665.145    82710176.02508       -74.761          51.000    20198664.551    82710171.02708       -74.761          51.250    20198664.547    79263917.40808       -71.780          53.000
G32  23097416.840   121377739.28808      2831.098          50.250    23097414.622    94580045.77507      2206.049          45.250    23097413.545    94580048.77108      2206.049          50.500    23097413.548    90639214.60008      2114.034          49.500
R01  20147358.408   107699193.01908      2789.063          48.500    20147361.765    83766050.67207      2169.271          42.500
R02  24411165.843   130262656.77607      4520.406          43.250    24411166.167   101315405.31905      3515.869          35.250
R07  23247275.404   124444492.41707     -3835.333          46.500    23247275.250    96790157.97406     -2983.037          40.250
R08  20068960.204   107468380.41008     -1025.438          48.250    20068959.669    83586517.97807      -797.562          47.000
R14  22861828.460   121866404.16207     -2452.513          46.750    22861831.883    94784974.05306     -1907.512          39.500
R15  23340454.540   124724298.91507       487.066          47.500    23340454.703    97007791.76806       378.831          38.500
R17  24285837.680   129958419.94007      3210.915          44.750    24285838.203   101078773.66606      2497.378          37.750
R22  23759259.346   126828540.55705     -2864.559          35.000
R23  19921268.528   106565397.35608      -373.063          48.000
R24  20516407.209   109710468.91108      2057.187          50.250    20516407.790    85330374.20207      1600.034          46.000
> 2022 01 01 00 01 30.0000000  0 20
G01  25205822.998   132457491.80606      2981.929          41.750    25205821.939   103213624.56106      2323.580          37.000    25205821.863   103213617.56305      2323.580          34.750    25205820.544    98913053.03607      2226.804          45.000
G08  21306003.247   111963811.78708      1985.253          49.250    21306001.988    87244532.59608      1546.949          49.000    21306000.904    87244525.59808      1546.951          49.250    21305999.908    83609329.31108      1482.557          52.750
G10  20813462.706   109375502.64808     -1160.694          50.750    20813460.851    85227668.35408      -904.437          50.250    20813460.751    85227671.35008      -904.437          51.000    20813458.407    81676491.75708      -866.837          52.750
G16  23046619.321   121110792.46108     -3138.471          48.750                                                                    23046612.707    94372030.70806     -2445.561          40.500
G18  24598487.548   129265952.94407     -2753.371          44.750    24598483.846   100726725.75607     -2145.485          42.500    24598483.231   100726702.76606     -2145.484          37.250    24598487.187    96529784.36307     -2056.089          47.500
G21  23124320.747   121519132.90108      1947.183          48.000                                                                    23124314.070    94690200.57906      1517.287          39.500
G23  22595947.145   118742543.06908     -2931.402          48.500    22595942.847    92526658.12207     -2284.208          46.750    22595942.267    92526656.12207     -2284.209          42.250    22595946.009    88671382.32708     -2189.117          50.750
G26  25197441.442   132413446.18307     -3332.557          42.500                                                                    25197435.730   103179294.97206     -2596.794          41.500    25197438.443    98880150.24707     -2488.552          46.250
G27  20199263.007   106147867.03908      -113.188          50.250    20199261.085    82712615.95408       -88.199          50.750    20199260.490    82712610.95408       -88.199          50.250    20199260.392    79266255.66308       -84.533          53.000
G32  23081275.921   121292918.49808      2823.247          49.750    23081273.817    94513951.65807      2199.935          45.500    23081272.886    94513954.66008      2199.935          49.750    23081272.889    90575874.40808      2108.194          49.750
R01  20131764.564   107615833.76507      2767.813          47.000    20131767.845    83701215.70607      2152.744          42.500
R02  24385747.007   130127020.18306      4521.604          39.000    24385748.618   101209910.17805      3516.803          34.750
R07  23268799.328   124559710.95107     -3846.424          45.750    23268799.069    96879772.38406     -2991.662          39.750
R08  20074777.928   107499534.24607     -1051.865          47.750    20074777.190    83610748.74707      -818.117          46.750
R14  22875676.022   121940220.11207     -2468.814          46.000    22875679.181    94842386.48006     -1920.188          40.250
R15  23337787.341   124710045.80907       462.662          46.250    23337787.136    96996706.02406       359.850          38.750
R17  24267826.921   129862042.07607      3214.049          44.000    24267827.739   101003813.16006      2499.816          37.750
R22  23775375.265   126914570.99205     -2871.009          33.500                                                                    23775379.067    98711348.87114     -2233.008          27.750
R23  19923392.325   106576756.86307      -384.733          47.500
R24  20504883.205   109648843.91708      2050.696          49.750    20504883.471    85282443.65607      1594.986          46.250
