     3.02           OBSERVATION DATA    M: MIXED            RINEX VERSION / TYPE
HEADER CHANGED BY EPN CB ON 2022-03-11                      COMMENT
TO BE CONFORM WITH THE INFORMATION IN                       COMMENT
ftp://epncb.oma.be/pub/station/log/larm.log                 COMMENT
                                                            COMMENT
Spider V7.1.1.7438  DGS                 20220304 235950 UTC PGM / RUN BY / DATE
THIS RINEX FILE IS CREATED FROM LB2 DATA                    COMMENT
SNR is mapped to RINEX snr flag value [1-9]                 COMMENT
LX:     < 12dBHz -> 1; 12-17dBHz -> 2; 18-23dBHz -> 3       COMMENT
       24-29dBHz -> 4; 30-35dBHz -> 5; 36-41dBHz -> 6       COMMENT
       42-47dBHz -> 7; 48-53dBHz -> 8; >= 54dBHz -> 9       COMMENT
Product                                                     COMMENT
LARM                                                        MARKER NAME
12610M002                                                   MARKER NUMBER
Dr. Christos PikridaDepartment of Geodesy and Surveying     OBSERVER / AGENCY
495318              LEICA GRX1200+GNSS  9.20/6.405          REC # / TYPE / VERS
09120015            LEIAR25         LEIT                    ANT # / TYPE
  4549397.1706  1874003.1392  4045167.6109                  APPROX POSITION XYZ
        0.1900        0.0000        0.0000                  ANTENNA: DELTA H/E/N
G   16 C1C L1C D1C S1C C2S L2S D2S S2S C2W L2W D2W S2W C5Q  SYS / # / OBS TYPES
       L5Q D5Q S5Q                                          SYS / # / OBS TYPES
R   12 C1C L1C D1C S1C C2P L2P D2P S2P C2C L2C D2C S2C      SYS / # / OBS TYPES
DBHZ                                                        SIGNAL STRENGTH UNIT
    30.000                                                  INTERVAL
  2022    03    04    00    00    0.0000000     GPS         TIME OF FIRST OBS
  2022    03    04    23    59   30.0000000     GPS         TIME OF LAST OBS
     0                                                      RCV CLOCK OFFS APPL
G L2S -0.25000                                              SYS / PHASE SHIFT
G L2X -0.25000                                              SYS / PHASE SHIFT
R L2P  0.25000                                              SYS / PHASE SHIFT
E L8Q -0.25000                                              SYS / PHASE SHIFT
 24 R01  1 R02 -4 R03  5 R04  6 R05  1 R06 -4 R07  5 R08  6 GLONASS SLOT / FRQ #
    R09 -2 R10 -7 R11  0 R12 -1 R13 -2 R14 -7 R15  0 R16 -1 GLONASS SLOT / FRQ #
    R17  4 R18 -3 R19  3 R20  2 R21  4 R22 -3 R23  3 R24  2 GLONASS SLOT / FRQ #
 C1C  -71.940 C1P  -71.940 C2C  -71.940 C2P  -71.940        GLONASS COD/PHS/BIS
    18    18  2185     7                                    LEAP SECONDS
                                                            END OF HEADER
> 2022 03 04 00 00  0.0000000  0 18
G01  20225754.505   106287080.83208     -1167.271          49.750    20225753.367    82821117.57708      -909.562          49.750    20225753.229    82821103.57508      -909.563          49.750    20225751.607    79370224.03908      -871.673          53.000
G03  20623015.867   108374751.41308       690.215          49.750    20623014.386    84447881.38408       537.829          49.500    20623013.485    84447889.38308       537.831          49.750    20623013.908    80929232.26208       515.415          53.000
G04  21369947.768   112299881.20308      2261.667          48.750    21369945.309    87506407.15308      1762.339          48.500    21369945.089    87506414.15807      1762.339          46.250    21369948.085    83860325.66208      1688.963          52.500
G09  24175500.206   127043163.51907      3408.158          46.250    24175497.148    98994695.03106      2655.704          40.250    24175496.208    98994684.02607      2655.705          46.000    24175498.586    94869913.70708      2545.040          48.750
G17  22862599.222   120143768.84808       496.793          48.000    22862594.879    93618503.43107       387.112          43.750    22862594.079    93618497.43907       387.110          43.000
G19  23419826.444   123072020.85107      1769.685          43.750                                                                    23419819.289    95900250.43006      1378.977          38.500
G21  21890617.648   115036010.85408     -2089.668          49.500                                                                    21890612.446    89638424.04107     -1628.313          45.500
G22  23683250.946   124456365.54707     -3009.642          46.250                                                                    23683246.331    96978968.09806     -2345.174          37.000
G31  22622337.165   118881192.27908      -368.192          48.750    22622332.171    92634683.27607      -286.902          42.750    22622331.088    92634688.27608      -286.902          49.000
G32  25262651.988   132756233.88306     -3366.896          40.000    25262650.604   103446455.41505     -2623.558          34.750    25262649.566   103446451.41306     -2623.558          40.250    25262649.500    99136059.31706     -2514.098          37.750
R01  19685407.125   105229855.22808       280.886          48.000    19685410.070    81845490.40706       218.468          41.750
R02  22920992.305   122310853.80607      2936.229          47.500    22920994.845    95130703.75606      2283.736          38.750
R08  20849534.125   111648521.87207     -2505.109          47.250    20849534.211    86837637.72107     -1948.419          44.750
R09  23710996.245   126615402.55907      -182.865          46.000    23710997.010    98478654.82506      -142.226          38.750
R10  23271042.347   124047769.91907      2378.306          44.500
R17  22955554.646   122839814.24307      4041.114          46.250    22955554.629    95542078.33606      3143.093          39.750
R23  19999016.866   106981268.31408     -2694.421          49.250
R24  19653256.368   105094796.21208      1022.181          50.250    19653256.610    81740408.24407       795.030          46.250
> 2022 03 04 00 00 30.0000000  0 18
G01  20232469.425   106322369.16208     -1185.163          50.000    20232468.531    82848614.95608      -923.503          50.250    20232468.385    82848600.95408      -923.503          49.750    20232466.868    79396575.69508      -884.972          53.000
G03  20619102.187   108354185.26208       680.989          49.750    20619100.844    84431855.80308       530.640          50.000    20619100.028    84431863.80408       530.640          50.000    20619100.227    80913874.42008       508.613          53.000
G04  21357077.289   112232244.37508      2247.652          48.750    21357074.391    87453703.14408      1751.418          49.250    21357074.125    87453710.15007      1751.418          47.000    21357077.270    83809817.66508      1678.496          52.500
G09  24156061.767   126941015.33607      3401.935          46.250    24156058.925    98915099.07107      2650.862          43.250    24156058.108    98915088.06607      2650.860          46.250    24156060.447    94793634.27308      2540.505          48.000
G17  22859816.379   120129144.97008       478.238          48.500    22859812.081    93607108.18307       372.652          44.750    22859811.380    93607102.18807       372.652          43.250
G19  23409778.966   123019221.93307      1750.567          44.250                                                                    23409771.948    95859108.40406      1364.077          38.750
G21  21902581.266   115098879.56308     -2101.404          49.750                                                                    21902575.991    89687412.63307     -1637.460          46.000
G22  23700446.947   124546731.32607     -3014.775          46.500                                                                    23700442.308    97049382.96706     -2349.176          37.000
G31  22624499.946   118892557.61308      -389.447          49.250    22624494.886    92643539.38607      -303.465          43.750    22624493.825    92643544.38608      -303.465          49.250
G32  25281876.267   132857256.71406     -3367.657          39.750    25281874.348   103525174.46305     -2624.149          34.250    25281873.470   103525170.46106     -2624.151          39.250    25281873.057    99211498.43206     -2515.019          38.250
R01  19683871.608   105221647.13207       266.488          47.000    19683874.327    81839106.32807       207.269          42.250
R02  22904509.864   122222895.59107      2927.847          47.750    22904511.824    95062291.81706      2277.217          40.750
R08  20863586.828   111723774.05307     -2511.585          47.250    20863587.125    86896167.17607     -1953.455          45.250
R09  23712092.387   126621254.83307      -206.994          45.750    23712092.924    98483206.59806      -160.995          39.000
R10  23257705.668   123976676.10207      2361.421          44.500
R17  22932926.965   122718729.95207      4031.283          45.750    22932927.067    95447901.69206      3135.443          40.250
R23  20014191.887   107062444.85108     -2717.219          48.750
R24  19647597.423   105064535.07608       995.410          49.750    19647597.525    81716871.79507       774.208          46.750
> 2022 03 04 00 01  0.0000000  0 18
G01  20239283.126   106358175.84408     -1204.292          50.500    20239282.384    82876516.26508      -938.411          50.250    20239282.246    82876502.26308      -938.409          50.500    20239280.851    79423314.44708      -899.536          53.000
G03  20615237.805   108333878.14108       670.427          50.000    20615236.591    84416032.08308       522.410          50.000    20615235.851    84416040.08208       522.410          50.000    20615235.746    80898710.02208       500.437          52.750
G04  21344284.125   112165015.22208      2231.854          49.500    21344281.066    87401316.80708      1739.106          49.000    21344280.748    87401323.81507      1739.106          45.750    21344284.010    83759614.10008      1666.540          52.250
G09  24136656.368   126839040.24307      3394.026          46.750    24136653.569    98835637.97506      2644.692          40.500    24136652.685    98835626.97907      2644.694          46.750    24136655.187    94717484.05108      2534.411          49.250
G17  22857137.042   120115065.55608       457.950          48.750    22857132.944    93596137.21907       356.844          45.000    22857132.379    93596131.21807       356.843          43.500
G19  23399839.585   122966989.79207      1729.459          45.500                                                                    23399832.406    95818408.04606      1347.632          37.750
G21  21914609.985   115162090.75308     -2114.882          50.250                                                                    21914604.725    89736668.09907     -1647.960          45.500
G22  23717668.508   124637230.99007     -3021.053          47.250                                                                    23717663.885    97119902.16706     -2354.069          36.000
G31  22626781.288   118904545.61208      -412.158          50.000    22626776.130    92652880.70107      -321.162          43.250    22626774.985    92652885.70108      -321.162          50.000
G32  25301102.908   132958292.48806     -3370.566          40.250    25301100.670   103603903.60305     -2626.416          33.500    25301099.505   103603899.61306     -2626.417          38.500    25301099.116    99286947.14906     -2516.868          37.500
R01  19682413.145   105213851.46607       250.778          47.500    19682415.566    81833043.03307       195.050          42.000
R02  22888071.508   122135175.46508      2917.832          49.000    22888072.966    94994065.10906      2269.425          39.250
R08  20877673.245   111799205.17807     -2519.484          47.250    20877673.188    86954835.81907     -1959.600          45.000
R09  23713320.966   126627815.09107      -232.733          44.750    23713321.465    98488309.02306      -181.015          38.500
R10  23244461.525   123906076.08807      2342.968          43.500
R17  22910351.605   122597925.45407      4019.982          46.250    22910351.827    95353942.66306      3126.652          40.000
R23  20029491.304   107144287.35408     -2741.366          48.750
R24  19642086.063   105035062.98008       966.958          50.000    19642086.224    81693949.06007       752.078          46.750
> 2022 03 04 00 01 30.0000000  0 18
G01  20246192.285   106394483.55908     -1219.442          49.750    20246191.505    82904807.96008      -950.216          50.250    20246191.466    82904793.95808      -950.216          49.750    20246190.129    79450427.31408      -910.531          53.000
G03  20611419.526   108313813.22808       663.982          49.250    20611418.424    84400397.08008       517.389          49.750    20611417.745    84400405.07908       517.389          49.250    20611417.390    80883726.47308       495.900          53.000
G04  21331565.126   112098177.77608      2220.640          48.000    21331562.250    87349235.69008      1730.369          48.750    21331561.870    87349242.69907      1730.369          46.250    21331565.209    83709703.04408      1658.260          52.250
G09  24117280.367   126737222.66907      3390.409          46.250    24117278.226    98756299.62107      2641.879          42.750    24117277.350    98756288.62907      2641.879          46.000    24117279.749    94641451.51607      2531.896          47.750
G17  22854558.220   120101514.03308       442.075          48.000    22854554.223    93585577.57007       344.474          44.500    22854553.820    93585571.57607       344.476          43.500
G19  23390005.207   122915309.62907      1712.581          44.250                                                                    23389997.966    95778137.78306      1334.479          38.500
G21  21926700.569   115225626.85408     -2124.056          49.500                                                                    21926695.269    89786176.72907     -1655.108          45.500
G22  23734912.025   124727845.85007     -3022.991          46.000                                                                    23734907.445    97190511.12805     -2355.575          35.500
G31  22629177.866   118917139.46508      -430.639          49.000    22629172.608    92662694.09507      -335.563          43.250    22629171.485    92662699.09108      -335.563          48.750
G32  25320328.384   133059322.45206     -3367.843          37.750    25320325.987   103682628.21805     -2624.294          33.250    25320324.651   103682624.21306     -2624.295          36.500    25320324.210    99362391.58006     -2515.462          38.250
R01  19681028.643   105206449.76408       239.354          48.500    19681030.685    81827286.15907       186.165          42.000
R02  22871674.808   122047677.59508      2912.120          48.250    22871676.206    94926011.24906      2264.988          41.750
R08  20891789.526   111874795.97107     -2523.177          47.750    20891789.226    87013628.65007     -1962.473          45.250
R09  23714678.504   126635066.24107      -254.127          44.750    23714679.225    98493948.78806      -197.655          38.500
R10  23231307.284   123835956.20307      2328.347          44.500
R17  22887826.146   122477387.70607      4012.663          47.000    22887826.331    95260191.10606      3120.961          40.000
R23  20044911.524   107226775.47808     -2761.077          49.000
R24  19636719.606   105006364.71408       942.887          50.750    19636719.649    81671628.16807       733.356          46.750
> 2022 03 04 00 02  0.0000000  0 18
G01  20253200.948   106431314.45808     -1236.019          50.000    20253200.209    82933507.37008      -963.130          50.250    20253200.124    82933493.36608      -963.130          50.000    20253198.865    79477930.90908      -923.023          53.000
G03  20607651.727   108294013.34508       656.051          49.750    20607650.646    84384968.59308       511.208          50.000    20607649.944    84384976.59508       511.208          49.750    20607649.584    80868940.85608       489.782          53.000
G04  21318925.126   112031755.62808      2207.543          48.500    21318922.407    87297478.17908      1720.165          48.750    21318921.951    87297485.18707      1720.164          46.500    21318925.307    83660102.10508      1648.357          52.250
G09  24097939.463   126635586.72307      3385.139          44.500    24097937.829    98677102.86606      2637.773          41.000    24097937.284    98677091.85307      2637.772          44.250    24097937.947    94565554.53508      2527.868          48.000
G17  22852084.225   120088513.50908       424.608          48.500    22852080.338    93575447.30007       330.863          44.750    22852079.917    93575441.29507       330.863          43.500
G19  23380280.328   122864206.01507      1694.240          44.250                                                                    23380273.327    95738316.79106      1320.188          37.250
G21  21938857.045   115289509.28508     -2134.702          50.000                                                                    21938851.705    89835955.24107     -1663.404          45.750
G22  23752181.268   124818596.45507     -3026.855          46.250                                                                    23752176.750    97261225.85906     -2358.589          37.000
G31  22631693.807   118930361.82508      -450.796          48.500    22631688.686    92672997.23507      -351.270          43.500    22631687.549    92673002.23508      -351.270          48.750
G32  25339556.588   133160367.68806     -3368.080          37.750    25339554.150   103761364.73605     -2624.479          34.750    25339553.044   103761360.73806     -2624.478          38.000    25339552.289    99437847.37906     -2515.058          38.500
R01  19679721.945   105199463.58608       226.396          48.250    19679723.884    81821852.47807       176.087          42.500
R02  22855323.485   121960424.68107      2904.781          46.500    22855324.664    94858147.90406      2259.274          39.000
R08  20905939.428   111950567.14907     -2528.189          47.750    20905939.211    87072561.77307     -1966.369          45.500
R09  23716169.805   126643031.48407      -277.097          44.750    23716170.508    98500143.98706      -215.520          38.250
R10  23218248.088   123766343.37207      2312.298          44.500
R17  22865355.564   122357143.67407      4003.584          46.250    22865355.406    95166667.98906      3113.899          39.250
R23  20060456.106   107309929.19508     -2782.396          49.000
R24  19631502.307   104978465.34908       917.021          50.250    19631502.290    81649928.66107       713.238          46.500
> 2022 03 04 00 02 30.0000000  0 18
G01  20260305.386   106468648.90808     -1252.563          49.750    20260304.711    82962599.14708      -976.024          50.000    20260304.565    82962585.14308      -976.024          49.750    20260303.350    79505810.53008      -935.396          53.000
G03  20603930.688   108274459.36908       647.878          49.250    20603929.629    84369731.71608       504.840          49.750    20603928.905    84369739.71808       504.840          49.250    20603928.629    80854338.84208       483.818          53.000
G04  21306360.864   111965730.48208      2194.388          48.500    21306358.107    87246030.03208      1709.913          48.500    21306357.567    87246037.04007      1709.913          45.750    21306360.912    83610797.62508      1638.723          52.250
G09  24078629.486   126534114.54707      3379.724          46.250    24078627.685    98598033.61707      2633.554          42.750    24078627.007    98598022.62107      2633.553          46.250    24078628.728    94489779.95108      2524.013          48.000
G17  22849711.527   120076044.83408       407.024          48.750    22849707.640    93565731.43707       317.161          44.500    22849707.122    93565725.44007       317.161          43.000
G19  23370661.587   122813660.84507      1676.039          44.250                                                                    23370654.809    95698930.94706      1306.006          39.750
G21  21951075.568   115353717.65008     -2145.383          49.500                                                                    21951070.171    89885987.72407     -1671.727          45.750
G22  23769472.308   124909461.54907     -3030.428          45.750                                                                    23769467.851    97332029.81006     -2361.374          36.750
G31  22634325.406   118944193.09708      -470.931          48.250    22634320.571    92683774.83307      -366.960          43.250    22634319.527    92683779.83708      -366.960          48.000
G32  25358783.549   133261407.20606     -3367.565          37.250    25358781.386   103840096.77105     -2624.077          34.250    25358780.349   103840092.77706     -2624.077          36.250    25358779.409    99513298.91606     -2514.598          38.500
R01  19678488.928   105192872.34007       213.430          47.500    19678491.104    81816725.95507       166.001          43.000
R02  22839014.289   121873397.80707      2897.411          46.500    22839016.091    94790460.36507      2253.543          42.250
R08  20920119.123   112026497.17807     -2533.436          47.750    20920118.604    87131618.44407     -1970.449          45.750
R09  23717791.646   126651691.21207      -299.929          44.750    23717792.327    98506879.34006      -233.278          39.250
R10  23205281.027   123697221.76507      2296.038          44.000
R17  22842936.948   122237177.60207      3994.374          45.500    22842936.385    95073361.05406      3106.735          39.750
R23  20076120.926   107393726.01608     -2803.624          48.250
R24  19626430.967   104951347.21108       891.104          50.000    19626430.850    81628836.77407       693.080          46.750
