     3.02           OBSERVATION DATA    M: MIXED            RINEX VERSION / TYPE
HEADER CHANGED BY EPN CB ON 2021-01-09                      COMMENT
TO BE CONFORM WITH THE INFORMATION IN                       COMMENT
ftp://epncb.oma.be/pub/station/log/pdel.log                 COMMENT
                                                            COMMENT
Spider V7.1.1.7438  DGT                 20210102 000525 UTC PGM / RUN BY / DATE
SNR is mapped to RINEX snr flag value [1-9]                 COMMENT
LX:     < 12dBHz -> 1; 12-17dBHz -> 2; 18-23dBHz -> 3       COMMENT
       24-29dBHz -> 4; 30-35dBHz -> 5; 36-41dBHz -> 6       COMMENT
       42-47dBHz -> 7; 48-53dBHz -> 8; >= 54dBHz -> 9       COMMENT
Site Information :                                          COMMENT
Ponta Delgada                                               COMMENT
R A Acores                                                  COMMENT
Portugal                                                    COMMENT
Eurasian                                                    COMMENT
Universidade dos Acores                                     COMMENT
Product                                                     COMMENT
PDEL                                                        MARKER NAME
31906M004                                                   MARKER NUMBER
Divisao de Geodesia DIRECAO-GERAL DO TERRITORIO             OBSERVER / AGENCY
355328              LEICA GRX1200GGPRO  9.20/3.823          REC # / TYPE / VERS
987                 LEIAT504GG      NONE                    ANT # / TYPE
  4551596.0624 -2186893.3724  3883410.6118                  APPROX POSITION XYZ
        0.0000        0.0000        0.0000                  ANTENNA: DELTA H/E/N
G    8 C1C L1C D1C S1C C2W L2W D2W S2W                      SYS / # / OBS TYPES
R    8 C1C L1C D1C S1C C2P L2P D2P S2P                      SYS / # / OBS TYPES
DBHZ                                                        SIGNAL STRENGTH UNIT
    30.000                                                  INTERVAL
  2021    01    01    00    00    0.0000000     GPS         TIME OF FIRST OBS
  2021    01    01    23    59   30.0000000     GPS         TIME OF LAST OBS
     0                                                      RCV CLOCK OFFS APPL
G L2S -0.25000                                              SYS / PHASE SHIFT
G L2X -0.25000                                              SYS / PHASE SHIFT
R L2P  0.25000                                              SYS / PHASE SHIFT
E L8Q -0.25000                                              SYS / PHASE SHIFT
 23 R01  1 R02 -4 R03  5 R04  6 R05  1 R06 -4 R07  5 R08  6 GLONASS SLOT / FRQ #
    R09 -2 R10 -7 R12 -1 R13 -2 R14 -7 R15  0 R16 -1 R17  4 GLONASS SLOT / FRQ #
    R18 -3 R19  3 R20  2 R21  4 R22 -3 R23  3 R24  2        GLONASS SLOT / FRQ #
 C1C  -71.940 C1P  -71.940 C2C  -71.940 C2P  -71.940        GLONASS COD/PHS/BIS
    18    18  1929     7                                    LEAP SECONDS
                                                            END OF HEADER
> 2021 01 01 00 00  0.0000000  0 18
G01  23304001.080   122463355.10707      3646.410          43.250    23304002.300    95426008.50006      2841.359          39.250
G07  22810555.860   119870275.48307       935.180          47.250    22810553.240    93405390.86806       728.711          41.750
G08  20971862.720   110207902.78308       989.156          50.250    20971862.920    85876301.69509       770.770          54.750
G10  22861755.460   120139349.76307       655.414          47.500    22861755.960    93615086.90408       510.711          52.500
G16  21447358.180   112706666.03908     -2113.684          50.000    21447355.340    87823382.19107     -1647.027          46.000
G20  23697638.320   124531937.64907     -1535.242          43.500    23697636.020    97037859.38405     -1196.293          32.250
G21  21374080.880   112321592.85308      1921.324          49.750    21374078.520    87523338.64007      1497.137          45.750
G23  23745805.100   124785054.94607     -1150.742          43.500    23745803.480    97235107.77106      -896.684          38.500
G26  23626014.540   124155574.32907     -3202.063          43.500    23626016.120    96744620.63508     -2495.117          50.500
G27  20758197.160   109085097.40908     -1036.988          51.000    20758196.940    85001392.70809      -808.043          54.750
G30  24726423.660   129938226.81706      2311.270          38.500    24726423.880   101250560.95806      1800.992          36.500
R02  23593776.980   125900910.86807      2309.918          42.000    23593783.080    97922960.97206      1796.602          39.000
R09  22825823.260   121888612.10407      3905.059          44.750    22825826.560    94802264.03307      3037.270          42.000
R15  20587546.760   110013618.95308     -3333.688          50.750    20587551.800    85566172.38207     -2592.871          47.000
R16  19617487.600   104793105.47508       823.941          48.250    19617492.020    81505756.32707       640.844          45.750
R17  21493426.280   115015742.28708     -2986.711          48.500    21493429.660    89456737.59507     -2323.000          44.750
R18  19610722.540   104683414.50208      -548.891          51.000    19610727.700    81420499.92408      -426.918          49.000
R19  21380262.720   114370001.72606      2236.664          39.250    21380266.820    88954466.06407      1739.629          43.000
> 2021 01 01 00 00 30.0000000  0 18
G01  23283201.320   122354052.32707      3639.629          42.750    23283202.840    95340837.50606      2836.070          38.250
G07  22805266.820   119842482.32007       916.809          46.500    22805264.500    93383733.83807       714.391          42.000
G08  20966233.740   110178322.13908       981.937          50.750    20966233.880    85853251.83809       765.141          54.500
G10  22858060.160   120119930.16307       638.367          47.500    22858060.460    93599954.74608       497.426          52.500
G16  21459456.920   112770245.09508     -2125.816          50.000    21459454.060    87872924.28807     -1656.480          46.000
G20  23706447.840   124578230.82307     -1551.594          43.000    23706444.880    97073931.99505     -1209.035          34.750
G21  21363150.060   112264150.66708      1907.512          50.250    21363147.580    87478578.51407      1486.367          45.750
G23  23752421.040   124819822.09007     -1168.129          43.000    23752419.220    97262199.04906      -910.230          37.500
G26  23644309.600   124251716.16207     -3208.238          42.750    23644311.340    96819536.31608     -2499.930          51.000
G27  20764135.160   109116301.63108     -1044.172          51.000    20764134.880    85025707.68009      -813.645          54.750
G30  24713263.940   129869072.05606      2298.098          39.250    24713263.960   101196674.13805      1790.723          35.750
R02  23580830.500   125831826.42106      2295.094          41.500    23580836.740    97869228.61406      1785.074          39.000
R09  22803908.800   121771590.11507      3895.906          44.500    22803912.100    94711246.91607      3030.145          42.250
R15  20606308.160   110113874.10608     -3350.844          50.500    20606313.200    85644148.60807     -2606.215          47.250
R16  19612930.480   104768762.56608       798.129          48.000    19612934.980    81486822.94207       620.762          45.750
R17  21510176.240   115105374.97408     -2989.539          48.500    21510179.560    89526451.89307     -2325.199          45.000
R18  19613842.580   104700069.74408      -562.285          51.000    19613847.700    81433454.00008      -437.332          49.000
R19  21367751.440   114303072.91306      2224.242          39.750    21367755.240    88902410.35307      1729.965          43.750
> 2021 01 01 00 01  0.0000000  0 18
G01  23262441.700   122244960.43907      3632.703          42.750    23262443.400    95255830.87306      2830.680          38.000
G07  22800082.500   119815239.93507       898.707          46.500    22800080.400    93362505.99707       700.289          42.000
G08  20960645.780   110148957.39708       975.168          50.500    20960645.980    85830370.21909       759.867          54.750
G10  22854463.960   120101031.35507       620.949          47.500    22854464.020    93585228.41208       483.855          52.250
G16  21471624.260   112834184.87708     -2137.449          50.250    21471621.480    87922747.48207     -1665.547          46.000
G20  23715350.740   124625016.67407     -1567.910          42.250    23715347.960    97110388.50505     -1221.754          35.250
G21  21352299.400   112207129.95608      1893.602          50.000    21352296.760    87434146.79507      1475.535          45.250
G23  23759139.260   124855126.84207     -1185.750          42.500    23759137.400    97289709.24606      -923.965          37.000
G26  23662641.060   124348049.06307     -3214.250          43.250    23662642.880    96894600.89608     -2504.613          50.000
G27  20770114.180   109147721.60908     -1051.047          51.000    20770113.900    85050190.77309      -818.996          54.750
G30  24700182.500   129800329.32406      2284.566          39.500    24700182.660   101143108.39506      1780.180          37.000
R02  23567967.900   125763188.32807      2280.441          43.000    23567974.220    97815843.44006      1773.672          38.750
R09  22782047.560   121654852.49807      3886.512          44.250    22782050.980    94620450.99507      3022.840          43.000
R15  20625166.480   110214647.13508     -3367.848          50.750    20625171.520    85722527.59807     -2619.441          47.000
R16  19608518.140   104745192.29408       772.668          48.000    19608522.640    81468490.50107       600.961          45.750
R17  21526941.700   115195090.88607     -2992.020          47.750    21526945.380    89596230.90807     -2327.129          45.250
R18  19617038.500   104717129.39508      -575.578          50.750    19617043.580    81446722.61208      -447.676          49.250
R19  21355310.160   114236521.22406      2212.152          39.000    21355313.980    88850647.96007      1720.563          43.750
> 2021 01 01 00 01 30.0000000  0 18
G01  23241722.060   122136078.09607      3625.543          43.500    23241723.720    95170987.50306      2825.098          39.000
G07  22795002.620   119788545.61107       880.543          47.000    22795000.660    93341705.21306       686.137          41.250
G08  20955098.320   110119805.56608       968.027          50.500    20955098.600    85807654.51309       754.305          54.750
G10  22850966.560   120082651.56708       603.863          48.250    22850966.500    93570906.49508       470.539          51.750
G16  21483859.300   112898480.92208     -2149.273          50.000    21483856.620    87972848.28207     -1674.762          45.500
G20  23724346.420   124672289.93507     -1584.184          42.250    23724343.580    97147224.79605     -1234.434          34.750
G21  21341528.340   112150527.94008      1879.688          50.000    21341525.780    87390041.33507      1464.688          45.250
G23  23765958.760   124890964.84907     -1203.355          43.250    23765957.180    97317634.98606      -937.680          37.500
G26  23681008.300   124444568.27007     -3220.484          43.750    23681009.720    96969810.67808     -2509.469          49.750
G27  20776133.500   109179353.45708     -1058.117          51.000    20776133.220    85074838.95809      -824.512          54.750
G30  24687179.440   129731997.31506      2270.773          39.500    24687179.540   101089862.64705      1769.430          34.250
R02  23555188.820   125694997.12406      2265.148          41.750    23555195.340    97762805.86106      1761.781          39.000
R09  22760239.620   121538399.79307      3876.961          44.750    22760243.320    94529876.67607      3015.414          42.250
R15  20644120.540   110315931.21408     -3384.738          50.750    20644125.560    85801304.10407     -2632.578          47.250
R16  19604249.980   104722392.50408       746.953          48.250    19604254.540    81450757.32107       580.961          45.750
R17  21543721.740   115284884.32008     -2994.430          48.000    21543725.680    89666070.22107     -2329.000          44.750
R18  19620309.080   104734588.07708      -588.754          51.000    19620314.320    81460301.59108      -457.918          49.000
R19  21342938.700   114170342.76306      2199.852          39.500    21342942.820    88799175.86607      1710.996          43.750
> 2021 01 01 00 02  0.0000000  0 18
G01  23221043.500   122027410.50507      3618.270          43.750    23221044.940    95086311.44806      2819.430          37.500
G07  22790028.040   119762403.47807       861.816          47.500    22790025.840    93321334.69706       671.543          41.000
G08  20949591.980   110090869.42508       960.754          50.500    20949592.300    85785106.86609       748.637          54.750
G10  22847568.700   120064795.08507       586.223          47.750    22847568.700    93556992.35808       456.797          52.250
G16  21496162.720   112963136.02508     -2161.367          50.000    21496160.060    88023228.86307     -1684.188          45.500
G20  23733435.320   124720052.49607     -1600.531          42.750    23733432.420    97184442.38105     -1247.172          34.000
G21  21330837.740   112094348.48408      1865.383          50.000    21330835.140    87346265.11907      1453.543          45.500
G23  23772880.260   124927338.49407     -1221.895          43.250    23772878.680    97345978.05806      -952.129          38.500
G26  23699411.020   124541275.61907     -3226.887          42.250    23699412.420    97045167.02908     -2514.461          50.500
G27  20782193.720   109211199.89908     -1065.332          51.000    20782193.440    85099654.37209      -830.133          54.750
G30  24674255.300   129664081.22306      2256.836          40.500    24674255.480   101036941.02306      1758.570          36.750
R02  23542495.000   125627260.07607      2249.949          43.000    23542501.100    97710121.49406      1749.961          37.250
R09  22738486.340   121422239.38007      3867.020          45.000    22738489.960    94439529.69407      3007.684          42.750
R15  20663170.100   110417726.33508     -3401.879          50.750    20663174.880    85880478.07507     -2645.910          47.000
R16  19600126.980   104700368.20408       720.859          48.500    19600131.660    81433627.30607       560.664          45.750
R17  21560516.520   115374756.55108     -2997.371          48.000    21560520.420    89735970.82807     -2331.293          45.000
R18  19623654.660   104752447.22908      -602.246          51.000    19623659.900    81474192.04708      -468.418          49.250
R19  21330637.720   114104541.38206      2187.082          40.000    21330641.900    88747997.03807      1701.063          43.750
> 2021 01 01 00 02 30.0000000  0 18
G01  23200405.380   121918955.78207      3611.195          43.750    23200406.820    95001801.25606      2813.918          37.500
G07  22785157.840   119736810.16007       843.941          47.000    22785155.380    93301391.84606       657.613          41.500
G08  20944125.880   110062145.31708       953.418          50.250    20944126.240    85762724.45309       742.918          54.750
G10  22844269.920   120047459.29307       568.719          47.250    22844269.740    93543483.94008       443.152          52.750
G16  21508533.660   113028145.25908     -2173.316          50.000    21508530.940    88073885.40507     -1693.492          45.500
G20  23742616.220   124768299.10006     -1616.566          41.750    23742613.380    97222037.14205     -1259.668          34.250
G21  21320227.020   112038588.62708      1851.016          50.250    21320224.380    87302815.86907      1442.348          45.500
G23  23779903.100   124964242.90007     -1239.637          43.750    23779901.020    97374734.74206      -965.957          36.500
G26  23717848.500   124638165.79207     -3233.145          43.750    23717850.060    97120665.83908     -2519.336          49.250
G27  20788293.960   109243256.59308     -1072.473          51.000    20788293.620    85124633.60809      -835.691          54.500
G30  24661410.260   129596579.25206      2242.965          41.000    24661410.360   100984342.08905      1747.766          33.500
R02  23529886.340   125559976.80207      2234.645          42.750    23529892.300    97657790.00206      1738.055          39.000
R09  22716788.120   121306371.35407      3856.879          45.500    22716791.860    94349410.11207      2999.789          43.250
R15  20682314.000   110520025.00408     -3418.828          50.750    20682318.740    85960043.70607     -2659.094          47.000
R16  19596148.840   104679117.27008       694.945          48.500    19596153.440    81417098.78707       540.508          45.750
R17  21577324.740   115464701.64607     -2999.832          47.750    21577328.980    89805928.11007     -2333.207          44.750
R18  19627074.140   104770700.72608      -615.453          50.750    19627079.320    81488389.20408      -478.691          49.000
R19  21318406.620   114039112.44706      2174.352          40.000    21318410.640    88697107.89607      1691.164          43.500
> 2021 01 01 00 03  0.0000000  0 19
G01  23179808.860   121810719.79507      3604.273          43.250    23179810.240    94917461.52606      2808.520          37.000
G07  22780393.120   119711770.06607       825.418          47.750    22780390.740    93281880.07806       643.184          41.250
G08  20938700.920   110033636.82608       946.754          50.500    20938701.220    85740510.04209       737.727          54.750
G10  22841071.120   120030649.14708       551.687          48.250    22841070.760    93530385.13108       429.887          52.000
G16  21520972.620   113093511.91508     -2184.672          50.250    21520969.860    88124820.44307     -1702.344          45.750
G20  23751889.780   124817032.17607     -1632.371          43.000    23751886.900    97260010.94505     -1271.980          34.250
G21  21309696.860   111983252.27108      1837.555          50.250    21309694.080    87259696.60807      1431.855          45.500
G23  23787027.620   125001680.87107     -1256.785          43.750    23787025.240    97403907.23406      -979.312          37.000
G26  23736321.720   124735241.14007     -3238.656          43.250    23736322.880    97196308.98208     -2523.629          49.000
G27  20794434.860   109275526.83808     -1079.109          51.000    20794434.440    85149779.25509      -840.863          54.750
G30  24648645.040   129529497.14306      2229.355          40.500    24648645.000   100932070.32706      1737.156          36.750
R02  23517363.760   125493155.39907      2219.934          42.500    23517370.120    97605817.85006      1726.613          39.000
R03  24673341.480   132078341.02306      3429.285          36.500
R09  22695145.980   121190803.26907      3847.266          45.000    22695149.620    94259523.84307      2992.316          42.500
R15  20701552.120   110622828.07108     -3435.008          50.500    20701557.000    86040001.63707     -2671.672          47.000
R16  19592316.560   104658644.91408       669.457          48.500    19592320.960    81401175.83907       520.684          45.750
R17  21594147.140   115554721.65108     -3001.742          48.000    21594151.640    89875943.65307     -2334.691          45.000
R18  19630567.780   104789350.13908      -628.160          51.000    19630572.960    81502894.30308      -488.574          49.000
R19  21306245.720   113974060.28206      2162.039          39.500    21306249.740    88646511.79707      1681.586          43.750
> 2021 01 01 00 03 30.0000000  0 19
G01  23159254.420   121702705.18707      3597.078          44.000    23159255.860    94833294.30706      2802.918          38.250
G07  22775733.860   119687284.41707       807.270          47.250    22775731.380    93262800.34006       629.039          41.500
G08  20933317.180   110005344.50608       939.988          50.500    20933317.380    85718464.07409       732.453          54.750
G10  22837972.880   120014366.61908       534.379          48.250    22837972.460    93517697.43508       416.395          52.000
G16  21533479.560   113159236.26008     -2196.352          50.250    21533476.800    88176034.19807     -1711.445          45.500
G20  23761255.980   124866250.71207     -1648.484          42.500    23761253.020    97298363.09005     -1284.539          35.000
G21  21299247.600   111928340.85208      1823.777          50.250    21299244.860    87216908.49207      1421.125          45.500
G23  23794253.380   125039652.19707     -1274.391          42.750    23794250.940    97433495.28606      -993.035          37.750
G26  23754829.480   124832501.07407     -3244.699          42.250    23754830.640    97272095.93708     -2528.340          49.250
G27  20800616.400   109308010.88708     -1085.957          51.000    20800616.020    85175091.49909      -846.203          54.750
G30  24635960.120   129462837.75106      2215.215          39.750    24635960.340   100880127.94805      1726.137          34.000
R02  23504929.100   125426800.27507      2204.711          43.000    23504934.980    97554208.28206      1714.773          39.250
R03  24654121.140   131975424.83206      3431.781          40.000
R09  22673560.800   121075539.76407      3837.355          44.750    22673564.260    94169874.44207      2984.609          42.750
R15  20720884.120   110726132.72508     -3451.344          50.500    20720888.900    86120349.69707     -2684.379          46.750
R16  19588630.460   104638953.43008       643.707          48.250    19588634.720    81385860.23407       500.656          45.750
R17  21610983.280   115644815.20708     -3003.949          48.250    21610987.540    89946016.41107     -2336.410          45.000
R18  19634135.280   104808394.17108      -640.918          50.750    19634140.820    81517706.33708      -498.492          49.250
R19  21294155.540   113909385.63706      2150.191          39.250    21294159.640    88596209.33207      1672.371          43.750
> 2021 01 01 00 04  0.0000000  0 19
G01  23138741.340   121594907.59307      3589.438          44.250    23138742.680    94749296.20306      2796.961          38.500
G07  22771178.920   119663347.59108       788.559          48.000    22771176.120    93244148.26806       614.457          40.750
G08  20927973.260   109977262.15608       932.289          50.500    20927973.500    85696581.73209       726.461          54.750
G10  22834973.800   119998606.38707       516.332          47.500    22834973.520    93505416.73808       402.336          53.000
G16  21546053.140   113225310.96608     -2208.559          50.000    21546050.280    88227520.97007     -1720.957          45.500
G20  23770712.980   124915947.45307     -1664.930          42.750    23770710.400    97337087.80705     -1297.348          32.750
G21  21288878.080   111873848.49408      1809.223          50.250    21288875.360    87174446.91407      1409.785          46.000
G23  23801578.900   125078149.40207     -1292.184          43.750    23801577.080    97463493.10406     -1006.898          37.250
G26  23773370.740   124929937.64507     -3250.813          42.750    23773372.300    97348020.51108     -2533.105          50.000
G27  20806837.280   109340701.83708     -1093.340          51.000    20806837.000    85200564.96709      -851.953          54.750
G30  24623354.780   129396596.53106      2200.906          39.250    24623355.120   100828511.41306      1714.992          36.500
R02  23492581.280   125360908.92507      2188.516          43.500    23492587.040    97502959.47306      1702.180          39.500
R03  24634884.800   131872466.18106      3433.016          39.750
R09  22652032.240   120960578.62607      3826.652          45.000    22652035.880    94080460.23507      2976.195          43.250
R15  20740308.120   110829929.04708     -3468.227          50.250    20740313.120    86201080.15907     -2697.512          47.000
R16  19585089.440   104620037.70208       617.437          48.250    19585093.600    81371147.99507       480.227          45.750
R17  21627831.520   115734973.69007     -3006.621          47.500    21627835.660    90016139.65007     -2338.488          44.750
R18  19637775.300   104827824.47408      -654.363          50.750    19637780.880    81532818.78608      -508.949          49.250
R19  21282134.700   113845082.04506      2137.113          40.000    21282138.520    88546195.45707      1662.199          43.500
> 2021 01 01 00 04 30.0000000  0 19
G01  23118270.760   121487334.39807      3581.742          43.500    23118272.040    94665472.92306      2790.965          39.750
G07  22766729.600   119639965.57607       769.996          47.500    22766727.000    93225928.50907       599.992          42.000
G08  20922670.440   109949395.29408       925.176          50.500    20922670.560    85674867.28409       720.914          54.750
G10  22832075.460   119983375.01308       498.781          48.250    22832075.160    93493548.14408       388.656          52.250
G16  21558694.320   113291740.91308     -2220.426          49.750    21558691.520    88279284.55007     -1730.207          45.500
G20  23780261.520   124966126.31607     -1680.934          42.000    23780259.360    97376188.20105     -1309.824          34.250
G21  21278589.320   111819780.98908      1794.980          50.250    21278586.520    87132316.41107      1398.684          46.000
G23  23809005.820   125117176.89007     -1309.996          44.250    23809004.120    97493904.13106     -1020.777          37.000
G26  23791947.140   125027554.88507     -3256.809          43.000    23791948.520    97424085.88808     -2537.773          49.750
G27  20813098.460   109373604.66808     -1100.563          51.000    20813098.220    85226203.53609      -857.582          54.750
G30  24610830.380   129330780.94806      2186.684          39.500    24610830.820   100777226.55205      1703.906          35.750
R02  23480322.100   125295490.67107      2172.395          42.750    23480327.560    97452078.59806      1689.637          39.000
R03  24615638.800   131769440.39506      3434.867          39.500
R09  22630562.220   120845929.33507      3816.078          45.250    22630565.860    93991288.56707      2968.063          43.750
R15  20759824.560   110934219.12708     -3484.730          50.000    20759829.660    86282194.65907     -2710.352          46.750
R16  19581694.900   104601904.80408       591.227          48.250    19581699.040    81357044.62207       459.840          45.750
R17  21644692.660   115825200.73207     -3008.875          47.250    21644696.680    90086316.23407     -2340.234          44.500
R18  19641488.260   104847644.53308      -667.301          50.750    19641493.720    81548234.38208      -519.016          49.250
R19  21270184.160   113781154.86706      2124.504          39.750    21270187.700    88496474.34107      1652.391          43.500
> 2021 01 01 00 05  0.0000000  0 20
G01  23097843.160   121379986.71707      3574.527          43.750    23097844.640    94581825.39806      2785.344          39.500
G07  22762385.780   119617137.88908       751.602          48.000    22762382.960    93208140.69506       585.660          41.250
G08  20917408.520   109921743.05808       918.078          50.500    20917408.560    85653320.08509       715.383          54.750
G10  22829277.680   119968672.81908       481.016          48.000    22829277.340    93482091.87408       374.812          52.500
G16  21571402.680   113358524.15008     -2232.305          50.000    21571400.080    88331323.41407     -1739.461          45.250
G20  23789901.800   125016784.80507     -1697.082          42.250    23789899.040    97415662.33606     -1322.406          36.250
G21  21268381.340   111766137.72708      1780.945          50.250    21268378.720    87090516.47907      1387.750          46.250
G22  25740300.600   135266192.13116      3414.902          37.250
G23  23816533.340   125156732.69807     -1327.379          43.500    23816531.360    97524726.86306     -1034.320          36.500
G26  23810556.660   125125350.51706     -3262.508          41.750    23810558.600    97500290.25208     -2542.219          50.000
G27  20819399.680   109406718.06008     -1107.320          51.000    20819399.460    85252006.18209      -862.848          54.750
G30  24598387.220   129265392.13506      2172.656          40.250    24598387.540   100726274.23506      1692.980          37.750
R02  23468151.660   125230548.14406      2156.781          41.500    23468157.220    97401567.75906      1677.492          38.750
R03  24596382.700   131666360.74306      3436.762          37.250
R09  22609150.900   120731595.03407      3805.824          44.500    22609154.660    93902361.93007      2960.086          43.250
R15  20779432.500   111038998.65208     -3500.859          50.250    20779437.600    86363689.83707     -2722.895          46.500
R16  19578446.840   104584555.05408       565.199          48.000    19578451.080    81343550.36007       439.594          45.750
R17  21661566.120   115915493.75507     -3010.828          47.750    21661570.260    90156544.13207     -2341.754          44.500
R18  19645273.480   104867850.99708      -680.039          50.500    19645278.960    81563950.52408      -528.918          49.250
R19  21258303.780   113717603.24906      2112.238          39.750    21258307.340    88447045.32607      1642.852          43.250
> 2021 01 01 00 05 30.0000000  0 20
G01  23077458.520   121272864.24007      3567.988          44.000    23077460.020    94498353.33006      2780.246          38.250
G07  22758147.020   119594862.84207       734.203          47.500    22758144.160    93190783.51306       572.102          41.000
G08  20912186.680   109894303.01608       911.945          50.250    20912186.860    85631938.23809       710.605          55.000
G10  22826580.220   119954498.54107       464.621          47.750    22826580.220    93471046.98408       362.039          52.750
G16  21584177.740   113425657.77708     -2242.762          50.250    21584175.040    88383635.31307     -1747.609          45.250
G20  23799632.420   125067919.15107     -1711.848          42.750    23799629.720    97455507.26105     -1333.906          34.750
G21  21258253.780   111712917.08208      1767.797          50.250    21258251.240    87049045.86507      1377.504          46.250
G22  25720788.300   135163651.40106      3421.352          38.500    25720789.480   105322341.63104      2666.004          27.500
G23  23824160.300   125196813.56807     -1343.902          43.250    23824158.400    97555958.69605     -1047.195          35.500
G26  23829199.600   125223320.80007     -3268.031          42.750    23829201.720    97576630.69208     -2546.523          50.000
G27  20825740.480   109440039.25708     -1113.223          51.000    20825740.180    85277970.75109      -867.449          54.750
G30  24586025.300   129200429.76706      2159.129          40.000    24586025.420   100675654.23506      1682.434          36.250
R02  23456070.620   125166082.44807      2141.668          43.000    23456076.440    97351427.78706      1665.738          38.000
R03  24577116.840   131563229.11306      3439.660          38.500
R09  22587799.000   120617577.05307      3796.043          45.250    22587802.480    93813681.27707      2952.477          42.500
R15  20799131.080   111144262.06208     -3515.840          50.250    20799136.220    86445561.36407     -2734.547          46.750
R16  19575345.280   104567987.86008       540.035          48.000    19575349.620    81330664.75407       420.023          45.500
R17  21678451.100   116005848.30807     -3011.996          47.750    21678455.100    90226819.88607     -2342.664          44.250
R18  19649130.560   104888439.74108      -691.781          51.000    19649136.060    81579963.99008      -538.051          49.250
R19  21246493.080   113654424.86606      2100.320          40.000    21246496.980    88397906.63807      1633.578          43.750
> 2021 01 01 00 06  0.0000000  0 20
G01  23057114.780   121165958.17107      3558.801          43.750    23057116.300    94415049.91206      2773.090          38.500
G07  22754011.280   119573130.18307       714.383          47.500    22754008.560    93173848.97407       556.660          42.000
G08  20907003.160   109867064.01008       903.672          50.500    20907003.460    85610713.03809       704.156          54.750
G10  22823981.460   119940842.55308       445.684          48.250    22823981.620    93460405.95708       347.270          52.250
G16  21597017.420   113493130.53008     -2255.523          50.000    21597014.800    88436211.45807     -1757.555          45.250
G20  23809451.300   125119516.77007     -1728.547          42.250    23809448.520    97495713.18505     -1346.922          33.000
G21  21248204.700   111660108.87808      1752.242          50.500    21248202.200    87007896.64007      1365.383          46.000
G22  25701244.740   135060948.26006      3425.324          37.000    25701241.620   105242313.67306      2669.105          37.250
G23  23831884.960   125237407.56107     -1362.715          43.000    23831882.840    97587590.37906     -1061.855          37.250
G26  23847874.160   125321453.42907     -3274.438          42.750    23847875.560    97653097.70008     -2551.512          50.000
G27  20832118.740   109473557.06908     -1121.375          51.000    20832118.340    85304088.52609      -873.797          54.750
G30  24573742.840   129135885.07506      2142.980          40.750    24573743.140   100625359.67605      1669.855          32.500
R02  23444077.920   125102087.56207      2124.406          43.250    23444083.760    97301653.99706      1652.313          38.750
R03  24557839.540   131460038.04506      3439.363          37.000
R09  22566505.120   120503868.87107      3783.965          45.000    22566508.460    93725241.57407      2943.078          43.000
R15  20818917.520   111249994.65108     -3533.188          50.250    20818922.540    86527797.82007     -2748.035          46.500
R16  19572388.480   104552193.33108       512.551          48.000    19572392.800    81318380.10707       398.652          45.750
R17  21695345.140   116096251.66507     -3015.219          47.250    21695348.820    90297133.59707     -2345.176          44.500
R18  19653056.900   104909397.67308      -705.695          50.750    19653062.240    81596264.59308      -548.879          49.250
R19  21234750.520   113591608.65206      2087.219          39.750    21234754.080    88349049.61107      1623.391          43.750
> 2021 01 01 00 06 30.0000000  0 20
G01  23036818.660   121059301.26407      3551.598          44.250    23036820.080    94331940.63806      2767.480          37.750
G07  22749984.740   119551970.91107       696.371          47.500    22749982.020    93157361.21306       542.621          41.250
G08  20901864.160   109840057.41308       896.750          50.750    20901864.220    85589668.92509       698.766          54.500
G10  22821487.540   119927736.66308       428.238          48.250    22821487.520    93450193.56708       333.687          52.250
G16  21609927.280   113560972.15808     -2267.105          49.750    21609924.640    88489075.05307     -1766.578          45.500
G20  23819364.020   125171607.67207     -1744.125          42.750    23819360.720    97536303.50505     -1359.063          33.000
G21  21238240.180   111607744.18908      1738.578          50.250    21238237.380    86967092.99007      1354.734          46.250
G22  25681676.360   134958115.56106      3430.949          36.750    25681674.220   105162184.66205      2673.484          34.750
G23  23839713.200   125278544.32507     -1380.020          43.750    23839710.900    97619644.98206     -1075.344          36.000
G26  23866584.860   125419777.87007     -3280.578          42.750    23866586.100    97729714.13408     -2556.297          49.750
G27  20838540.220   109507301.83008     -1128.113          51.250    20838539.760    85330383.14509      -879.051          54.500
G30  24561546.240   129071790.67906      2129.254          41.250    24561546.540   100575415.99705      1659.160          35.000
R02  23432180.080   125038597.28707      2108.469          43.500    23432185.760    97252272.67306      1639.918          38.750
R03  24538558.180   131356822.82906      3441.910          36.000
R09  22545275.640   120390505.40307      3773.465          44.000    22545279.180    93637070.00907      2934.918          44.250
R15  20838797.120   111356224.48208     -3548.613          50.250    20838802.120    86610421.01807     -2760.035          46.500
R16  19569582.480   104537204.07008       486.730          48.250    19569586.820    81306721.78707       378.562          45.750
R17  21712253.880   116186732.96907     -3016.727          47.250    21712257.180    90367507.93707     -2346.348          44.000
R18  19657057.660   104930754.14608      -718.168          50.750    19657062.880    81612875.17908      -558.578          49.000
R19  21223081.160   113529185.64006      2074.555          39.500    21223084.600    88300498.39607      1613.543          43.750
> 2021 01 01 00 07  0.0000000  0 20
G01  23016566.960   120952877.63707      3543.309          43.750    23016568.200    94249013.12806      2761.020          37.500
G07  22746063.960   119531367.71707       677.160          47.000    22746061.540    93141306.74806       527.652          41.750
G08  20896765.660   109813265.20608       889.281          50.250    20896765.880    85568791.88609       692.941          55.000
G10  22819095.020   119915164.02507       410.090          47.750    22819094.980    93440396.71408       319.461          52.750
G16  21622903.820   113629163.90008     -2279.078          49.750    21622901.040    88542211.46307     -1775.910          45.000
G20  23829366.700   125224172.20007     -1760.223          42.500    23829363.300    97577262.87705     -1371.602          31.500
G21  21228356.640   111555805.51008      1724.051          50.250    21228353.840    86926621.29807      1343.414          46.500
G22  25662079.720   134855137.58406      3434.254          36.750    25662077.120   105081942.50205      2676.055          31.500
G23  23847641.180   125320204.91707     -1397.750          42.750    23847638.440    97652107.80306     -1089.156          38.250
G26  23885327.980   125518274.76307     -3286.371          42.750    23885329.780    97806464.94108     -2560.809          49.000
G27  20845001.360   109541255.21608     -1135.465          51.000    20845000.960    85356840.33109      -884.777          54.750
G30  24549432.380   129008130.65406      2114.656          41.500    24549432.400   100525810.79305      1647.781          34.000
R02  23420374.040   124975597.96107      2091.441          42.250    23420379.720    97203273.20306      1626.676          39.500
R03  24519269.500   131253569.81206      3442.020          40.750
R09  22524108.260   120277472.85007      3761.973          45.500    22524111.940    93549155.84507      2925.977          43.250
R15  20858765.620   111462929.68808     -3564.910          50.000    20858770.480    86693413.96607     -2772.707          46.500
R16  19566924.100   104523003.43408       460.039          48.000    19566928.440    81295676.84307       357.809          45.750
R17  21729173.200   116277272.27607     -3019.191          47.250    21729176.920    90437927.39907     -2348.266          45.000
R18  19661129.160   104952488.84508      -730.984          50.500    19661134.440    81629779.95108      -568.543          49.000
R19  21211481.920   113467137.36406      2061.988          39.750    21211485.220    88252238.65607      1603.770          43.500
> 2021 01 01 00 07 30.0000000  0 20
G01  22996359.260   120846686.09207      3535.555          43.750    22996360.640    94166266.47406      2754.977          38.750
G07  22742248.380   119511317.84907       658.680          46.500    22742246.080    93125683.46406       513.254          41.750
G08  20891707.260   109786684.04408       882.164          50.500    20891707.660    85548079.29409       687.398          54.750
G10  22816803.480   119903122.55008       392.219          48.000    22816803.660    93431013.74608       305.621          52.250
G16  21635946.200   113697701.93808     -2290.840          49.500    21635943.500    88595617.70807     -1785.074          45.250
G20  23839458.160   125277205.45806     -1776.070          41.250    23839455.140    97618587.47105     -1383.953          32.750
G21  21218553.580   111504290.30808      1709.789          50.000    21218550.820    86886479.59907      1332.301          46.750
G22  25642455.080   134752013.08505      3439.367          34.250    25642453.100   105001586.13305      2680.043          31.500
G23  23855667.660   125362385.06607     -1414.926          43.250    23855665.000    97684975.44406     -1102.539          36.000
G26  23904103.420   125616939.48907     -3292.059          43.000    23904104.780    97883346.52508     -2565.246          49.500
G27  20851501.520   109575413.70108     -1142.430          51.000    20851501.120    85383457.33009      -890.203          54.750
G30  24537400.800   128944903.85406      2100.254          40.750    24537400.960   100476543.16506      1636.563          39.250
R02  23408659.740   124913090.16207      2074.895          42.250    23408665.860    97154656.05306      1613.809          39.500
R03  24499974.220   131150279.40406      3443.199          39.250
R09  22503003.240   120164771.95007      3750.770          45.000    22503006.320    93461499.56607      2917.262          42.750
R15  20878821.860   111570103.67608     -3580.535          50.250    20878826.640    86776771.53507     -2784.859          46.500
R16  19564412.980   104509589.14208       433.652          48.000    19564417.280    81285243.48907       337.281          45.750
R17  21746102.480   116367864.69807     -3020.906          47.250    21746106.500    90508388.18007     -2349.594          44.500
R18  19665270.720   104974596.31708      -743.500          50.750    19665275.960    81646974.65008      -578.281          49.250
R19  21199952.160   113405461.14706      2049.148          39.750    21199955.640    88204268.30407      1593.781          43.750
> 2021 01 01 00 08  0.0000000  0 20
G01  22976197.220   120740733.87307      3527.637          44.250    22976198.820    94083706.30506      2748.805          39.500
G07  22738539.240   119491827.24307       640.227          47.250    22738537.240    93110495.96206       498.879          41.500
G08  20886690.360   109760319.48908       874.980          50.750    20886690.660    85527535.48309       681.801          54.750
G10  22814614.360   119891618.52308       374.375          48.000    22814614.680    93422049.57408       291.723          52.500
G16  21649055.360   113766591.01008     -2302.496          50.000    21649052.560    88649297.49807     -1794.156          45.000
G20  23849640.060   125330711.62207     -1791.504          42.750    23849636.900    97660280.59805     -1395.980          33.750
G21  21208832.240   111453204.10108      1695.613          50.500    21208829.360    86846672.17707      1321.258          46.250
G22  25622804.440   134648750.04906      3444.332          38.000    25622802.140   104921121.81405      2683.898          32.250
G23  23863793.960   125405088.85907     -1432.352          42.750    23863791.240    97718251.11805     -1116.121          34.250
G26  23922911.540   125715775.92507     -3297.309          42.250    23922912.440    97960361.94208     -2569.332          49.250
G27  20858041.640   109609782.17408     -1149.316          51.000    20858041.160    85410237.95609      -895.570          54.750
G30  24525452.780   128882117.46506      2085.516          41.000    24525453.080   100427618.71706      1625.078          36.250
R02  23397039.180   124851082.44407      2058.453          42.000    23397045.620    97106427.85706      1601.020          40.000
R03  24480673.100   131046960.81506      3444.359          38.000    24480677.280   101925433.73005      2678.945          34.750
R09  22481961.560   120052411.91407      3739.465          43.750    22481964.480    93374108.44206      2908.473          41.750
R15  20898966.040   111677748.64608     -3596.145          49.750    20898971.040    86860495.39807     -2797.000          46.250
R16  19562050.300   104496967.75308       407.281          48.000    19562054.520    81275426.84907       316.773          45.500
R17  21763042.440   116458513.77107     -3022.742          47.250    21763046.640    90578893.01107     -2351.023          44.500
R18  19669482.820   104997080.03708      -755.875          50.750    19669487.900    81664461.98408      -587.906          49.000
R19  21188492.700   113344161.98306      2036.969          39.500    21188496.420    88156591.21407      1584.309          43.750
> 2021 01 01 00 08 30.0000000  0 20
G01  22956080.860   120635021.09907      3519.820          44.750    22956082.460    94001332.72906      2742.719          39.000
G07  22734936.500   119472894.16007       621.863          47.250    22734934.540    93095742.89606       484.566          41.250
G08  20881714.240   109734169.62308       868.211          50.750    20881714.540    85507158.96609       676.527          54.750
G10  22812527.320   119880651.00408       356.684          48.250    22812527.580    93413503.45908       277.934          52.250
G16  21662230.820   113835828.36208     -2313.453          50.000    21662228.000    88703248.65907     -1802.691          45.250
G20  23859911.120   125384686.99307     -1806.895          42.000    23859908.080    97702339.31205     -1407.969          34.750
G21  21199192.180   111402545.25408      1681.551          50.500    21199189.180    86807197.76107      1310.297          46.250
G22  25603127.580   134545348.40306      3449.410          39.000    25603124.120   104840549.47805      2687.863          33.500
G23  23872019.160   125448313.23107     -1449.625          43.250    23872016.820    97751932.47106     -1129.578          37.250
G26  23941751.060   125814780.75106     -3302.941          41.500    23941752.460    98037508.53308     -2573.723          49.750
G27  20864621.220   109644358.23708     -1155.836          51.000    20864620.720    85437180.34909      -900.656          54.750
G30  24513588.840   128819771.45406      2071.203          41.500    24513588.560   100379037.43806      1613.930          37.000
R02  23385513.040   124789576.88907      2042.211          43.000    23385519.620    97058590.23206      1588.383          39.500
R03  24461367.460   130943616.62206      3445.641          38.500    24461371.500   101845054.82706      2679.930          36.500
R09  22460984.480   119940395.17007      3728.359          45.750    22460987.280    93286984.32607      2899.836          43.750
R15  20919197.360   111785858.82708     -3611.266          49.750    20919202.360    86944581.10307     -2808.766          46.250
R16  19559835.900   104485138.74808       381.227          48.250    19559840.160    81266226.50107       296.504          45.750
R17  21779992.280   116549215.64907     -3024.137          46.750    21779996.460    90649438.91407     -2352.105          44.000
R18  19673764.400   105019935.89108      -768.023          50.500    19673769.640    81682238.76308      -597.355          49.250
R19  21177103.560   113283237.99106      2024.383          39.750    21177107.300    88109205.93707      1574.520          44.000
> 2021 01 01 00 09  0.0000000  0 20
G01  22936009.100   120529543.55107      3511.523          44.000    22936010.660    93919142.44206      2736.254          39.750
G07  22731438.640   119454512.91307       603.238          47.250    22731436.420    93081419.83806       470.055          41.500
G08  20876777.840   109708228.58708       860.910          50.500    20876778.220    85486945.17409       670.840          54.750
G10  22810541.480   119870214.83708       338.637          48.250    22810541.660    93405371.38308       263.867          52.250
G16  21675471.240   113905407.07808     -2325.539          49.750    21675468.500    88757465.82807     -1812.113          45.000
G20  23870270.060   125439123.93106     -1822.527          41.750    23870267.000    97744757.72405     -1420.152          34.000
G21  21189632.300   111352308.03208      1667.277          50.250    21189629.300    86768051.87407      1299.176          46.250
G22  25583423.720   134441804.02506      3453.543          39.750    25583420.220   104759865.77805      2691.082          33.000
G23  23880341.940   125492050.83307     -1466.688          42.750    23880340.120    97786013.72406     -1142.879          37.250
G26  23960621.440   125913946.29206     -3308.766          41.500    23960623.320    98114780.36108     -2578.262          49.250
G27  20871239.120   109679135.48108     -1163.008          51.000    20871238.620    85464279.49609      -906.242          54.750
G30  24501807.560   128757861.63106      2056.086          41.000    24501807.700   100330796.01105      1602.141          34.500
R02  23374080.720   124728570.70707      2024.988          42.750    23374087.280    97011140.97706      1574.988          39.000
R03  24442056.680   130840244.27506      3446.016          38.750    24442060.800   101764654.17106      2680.238          38.750
R09  22440071.420   119828719.51007      3716.406          45.500    22440074.420    93200125.49407      2890.535          43.750
R15  20939513.680   111894424.45508     -3626.863          49.750    20939518.840    87029021.03007     -2820.898          46.250
R16  19557768.820   104474096.90108       354.500          48.250    19557773.180    81257638.39007       275.723          46.000
R17  21796950.320   116639962.39007     -3026.098          47.500    21796954.360    90720019.71807     -2353.637          44.000
R18  19678114.140   105043155.61308      -780.414          50.750    19678119.560    81700298.55308      -606.988          49.250
R19  21165783.320   113222682.66206      2012.332          40.250    21165787.200    88062107.38607      1565.148          44.000
> 2021 01 01 00 09 30.0000000  0 20
G01  22915984.200   120424311.77607      3503.883          44.500    22915985.740    93837143.66106      2730.297          39.750
G07  22728047.740   119436692.33107       584.996          47.250    22728045.400    93067533.66806       455.836          41.500
G08  20871882.780   109682504.83108       853.937          50.500    20871883.140    85466900.68709       665.406          54.750
G10  22808658.560   119860319.56608       321.039          48.000    22808658.680    93397660.78008       250.156          52.750
G16  21688778.020   113975334.64208     -2336.605          49.500    21688775.240    88811954.82707     -1820.734          45.250
G20  23880718.140   125494029.35906     -1837.730          41.750    23880715.740    97787541.14605     -1432.004          34.000
G21  21180154.360   111302501.49208      1653.242          50.250    21180151.480    86729241.58007      1288.242          46.500
G22  25563694.640   134338127.90806      3458.762          37.500    25563691.240   104679079.41704      2695.137          27.750
G23  23888763.880   125536309.10407     -1483.813          42.750    23888762.520    97820500.66006     -1156.223          36.750
G26  23979524.020   126013279.73407     -3313.609          42.250    23979525.800    98192183.02008     -2582.039          48.750
G27  20877896.840   109714122.00908     -1169.578          51.000    20877896.400    85491541.72209      -911.363          54.750
G30  24490111.720   128696398.43706      2041.301          41.500    24490111.620   100282902.61906      1590.617          37.500
R02  23362744.240   124668076.65907      2008.148          43.500    23362750.680    96964090.05706      1561.891          39.500
R03  24422742.560   130736856.52906      3447.023          37.250    24422747.520   101684241.50906      2680.758          36.750
R09  22419224.240   119717397.54907      3704.676          44.000    22419227.600    93113541.76507      2881.414          42.500
R15  20959916.500   112003451.08608     -3641.633          49.500    20959921.780    87113819.52107     -2832.387          46.250
R16  19555850.940   104463852.13808       328.391          48.000    19555855.340    81249670.23107       255.410          45.750
R17  21813918.240   116730760.88207     -3027.359          47.250    21813922.320    90790640.78407     -2354.613          44.000
R18  19682533.360   105066745.87508      -792.262          50.750    19682538.800    81718646.53008      -616.207          49.250
R19  21154533.640   113162504.52106      1999.535          40.250    21154537.340    88015302.18507      1555.195          43.750
> 2021 01 01 00 10  0.0000000  0 20
G01  22896005.360   120319322.96407      3495.504          44.000    22896007.040    93755334.20706      2723.766          40.500
G07  22724762.600   119419428.13607       565.930          47.750    22724759.920    93054081.04306       440.984          40.500
G08  20867028.120   109656993.71208       846.668          50.750    20867028.540    85447021.89309       659.738          54.750
G10  22806877.800   119850961.36708       302.703          48.250    22806877.940    93390368.67708       235.871          52.500
G16  21702150.180   114045605.85908     -2348.340          49.750    21702147.340    88866711.61407     -1829.879          44.500
G20  23891254.200   125549396.92506     -1853.695          41.250    23891251.720    97830684.72205     -1444.438          32.250
G21  21170757.620   111253121.14508      1638.762          50.500    21170754.660    86690763.39707      1276.953          46.250
G22  25543940.080   134234317.99106      3462.469          38.750    25543936.620   104598188.83605      2698.035          32.750
G23  23897283.960   125581081.94307     -1501.285          43.250    23897282.540    97855388.57005     -1169.836          35.500
G26  23998457.240   126112774.90006     -3319.367          41.500    23998458.840    98269711.72308     -2586.523          48.750
G27  20884593.340   109749312.73008     -1176.699          51.000    20884593.020    85518963.06109      -916.914          54.750
G30  24478500.040   128635378.94406      2026.387          41.750    24478499.980   100235354.98306      1579.004          36.750
R02  23351503.540   124608093.32107      1990.625          43.000    23351509.840    96917436.34206      1548.266          38.750
R03  24403425.800   130633452.92506      3446.801          39.500    24403430.220   101603816.51505      2680.840          34.500
R09  22398443.300   119606428.76607      3692.840          45.500    22398446.420    93027232.70407      2872.203          42.250
R15  20980403.860   112112930.02108     -3657.020          49.750    20980409.300    87198969.79307     -2844.352          46.000
R16  19554081.480   104454400.24908       301.602          48.000    19554085.960    81242318.74907       234.574          45.500
R17  21830894.620   116821604.58307     -3029.020          47.250    21830898.500    90861297.00507     -2355.902          43.250
R18  19687020.760   105090699.93208      -804.742          50.750    19687026.180    81737277.46108      -625.914          49.000
R19  21143353.580   113102698.53806      1986.953          39.750    21143357.320    87968786.44507      1545.406          43.750
> 2021 01 01 00 10 30.0000000  0 20
G01  22876072.760   120214578.57507      3487.313          43.250    22876074.780    93673715.22606      2717.383          40.000
G07  22721583.400   119402720.18707       547.582          47.500    22721580.520    93041061.85106       426.684          41.000
G08  20862213.960   109631694.86308       839.555          50.750    20862214.240    85427308.50409       654.199          54.750
G10  22805199.180   119842140.60908       284.953          48.000    22805199.180    93383495.36508       222.043          52.500
G16  21715587.420   114116219.10808     -2359.535          49.750    21715584.700    88921734.91807     -1838.602          44.750
G20  23901877.860   125605224.78506     -1868.449          41.000    23901875.420    97874186.92605     -1455.934          31.500
G21  21161441.980   111204167.09808      1624.535          50.500    21161438.960    86652617.38507      1265.867          46.500
G22  25524160.620   134130376.05106      3466.813          38.750    25524157.040   104517195.32805      2701.422          33.500
G23  23905901.520   125626367.72907     -1518.195          42.750    23905900.060    97890676.19606     -1183.008          38.500
G26  24017421.140   126212429.75006     -3324.594          41.500    24017422.700    98347364.84308     -2590.598          50.000
G27  20891328.540   109784706.78708     -1183.293          50.750    20891328.280    85546542.84309      -922.051          54.750
G30  24466972.920   128574804.54406      2011.648          40.500    24466973.060   100188154.13505      1567.512          34.250
R02  23340359.000   124548623.75807      1973.512          42.750    23340365.240    96871182.26206      1534.953          39.500
R03  24384107.080   130530037.06006      3447.617          40.500    24384111.360   101523381.97806      2681.418          36.250
R09  22377729.520   119495816.56907      3680.980          46.500    22377732.520    92941201.01207      2862.984          44.000
R15  21000975.460   112222857.36408     -3671.875          50.000    21000980.760    87284468.82707     -2855.906          46.250
R16  19552460.760   104445742.45308       275.250          48.000    19552465.100    81235584.89907       214.078          45.750
R17  21847879.000   116912491.32107     -3030.203          47.500    21847882.780    90931986.69507     -2356.828          44.500
R18  19691575.860   105115015.09008      -816.617          50.750    19691581.140    81756189.24908      -635.152          49.250
R19  21132242.820   113043264.44006      1974.816          40.000    21132246.880    87922559.94107      1535.965          44.000
> 2021 01 01 00 11  0.0000000  0 20
G01  22856187.800   120110083.50607      3478.957          44.000    22856189.880    93592290.49606      2710.871          39.250
G07  22718510.540   119386571.53407       528.918          47.500    22718507.520    93028478.48806       412.145          40.500
G08  20857440.820   109606611.11508       832.402          51.000    20857440.880    85407762.72809       648.625          54.500
G10  22803623.420   119833861.10608       266.801          48.000    22803623.640    93377043.80708       207.895          52.250
G16  21729090.060   114187176.44108     -2371.070          49.500    21729087.380    88977026.33607     -1847.586          44.750
G20  23912589.380   125661514.29706     -1884.418          41.750    23912587.180    97918048.87105     -1468.379          31.500
G21  21152208.100   111155642.54408      1610.215          50.250    21152205.200    86614806.05507      1254.711          46.750
G22  25504356.760   134026306.76306      3470.660          37.750    25504353.680   104436102.57505      2704.414          32.000
G23  23914617.180   125672168.04307     -1535.633          43.250    23914615.680    97926364.75006     -1196.598          36.000
G26  24036415.660   126312245.81507     -3330.027          42.000    24036417.380    98425143.55708     -2594.832          50.250
G27  20898102.900   109820306.69308     -1190.188          50.750    20898102.720    85574283.02609      -927.418          54.750
G30  24455531.620   128514680.03006      1996.441          41.500    24455532.260   100141303.88306      1555.664          39.000
R02  23329311.880   124489674.34707      1956.453          43.750    23329318.100    96825332.74106      1521.688          39.250
