     3.02           OBSERVATION DATA    M (MIXED)           RINEX VERSION / TYPE
HEADER CHANGED BY EPN CB ON 2022-01-08                      COMMENT
TO BE CONFORM WITH THE INFORMATION IN                       COMMENT
ftp://epncb.oma.be/pub/station/log/vlns.log                 COMMENT
                                                            COMMENT
TPP 3.5.8           VGTU GI             20211231 235930 UTC PGM / RUN BY / DATE
VLNS                                                        MARKER NAME
10801M001                                                   MARKER NUMBER
VGTU GI             VGTU GI                                 OBSERVER / AGENCY
496804              LEICA GRX1200+GNSS  V 9.20              REC # / TYPE / VERS
725555              LEIAR25.R4      NONE                    ANT # / TYPE
  3343600.9781  1580417.5602  5179337.1310                  APPROX POSITION XYZ
        0.0730        0.0000        0.0000                  ANTENNA: DELTA H/E/N
G   18 C1C L1C S1C C2P C2W C2S C2L C2X L2P L2W L2S L2L L2X  SYS / # / OBS TYPES
       S2P S2W S2S S2L S2X                                  SYS / # / OBS TYPES
R    9 C1C L1C S1C C2C C2P L2C L2P S2C S2P                  SYS / # / OBS TYPES
    30.000                                                  INTERVAL
     0                                                      RCV CLOCK OFFS APPL
    18                                                      LEAP SECONDS
    51                                                      # OF SATELLITES
  2022    01    01    00    00   00.0000000     GPS         TIME OF FIRST OBS
                                                            END OF HEADER
> 2022 01 01  0  0  0.0000000  0 18        .000000000000
G08  20982937.082   110266080.971 8        49.500                    20982932.182                                                                    85921597.759 8                                                                        49.250
G10  20653556.564   108535187.798 8        51.250                    20653551.404                                                                    84572863.286 8                                                                        51.250
G15  24344696.138   127932262.707 7        42.250                    24344688.238                                                                    99687451.318 6                                                                        36.750
G16  24408110.078   128265466.264 7        44.750                    24408102.698                                                                    99947080.367 5                                                                        35.000
G18  24188429.400   127111068.746 7        45.750                    24188422.400                                                                    99047555.298 6                                                                        38.250
G21  23090376.126   121340763.250 7        47.250                    23090367.926                                                                    94551211.471 6                                                                        40.500
G23  21646659.416   113753986.508 8        48.500                    21646652.016                                                                    88639448.293 7                                                                        45.500
G27  20479111.884   107618478.693 8        50.250                    20479106.304                                                                    83858538.954 8                                                                        50.250
G32  24309157.338   127745478.276 7        46.750                    24309152.538                                                                    99541921.391 7                                                                        46.500
R01  21318914.200   113961814.327 7        46.250                    21318915.700                    88636984.751 6                        39.750
R07  21780916.296   116594978.370 7        46.500                    21780913.876                    90684977.028 7                        43.750
R08  19804231.168   106050789.397 7        46.750                    19804228.668                    82483937.490 7                        46.750
R14  23100067.048   123136348.205 7        46.750                    23100067.228                    95772704.138 6                        41.500
R15  22263396.852   118968837.447 7        47.500                    22263395.552                    92531319.353 6                        41.500
R17  23684911.784   126742744.500 6        41.500                    23684909.684                    98577684.259 6                        37.500
R22  24004891.660   128139740.043 6        36.000
R23  19516014.912   104397544.267 7        47.750
R24  19836290.268   106073575.803 8        49.250                    19836288.428                    82501668.988 7                        46.250
> 2022 01 01  0  0 30.0000000  0 18        .000000000000
G08  20975946.902   110229347.351 8        49.250                    20975942.022                                                                    85892974.149 8                                                                        49.250
G10  20653553.804   108535173.268 8        51.250                    20653548.624                                                                    84572851.968 8                                                                        51.500
G15  24360805.578   128016918.394 7        44.000                    24360797.698                                                                    99753416.773 6                                                                        38.000
G16  24429266.938   128376646.237 7        44.250                    24429259.538                                                                   100033714.088 5                                                                        33.750
G18  24207630.800   127211972.621 7        45.500                    24207623.800                                                                    99126181.672 6                                                                        38.500
G21  23075794.008   121264133.892 7        46.750                    23075785.808                                                                    94491500.330 6                                                                        40.000
G23  21659850.736   113823307.312 8        49.000                    21659843.336                                                                    88693464.507 7                                                                        45.000
G27  20485696.504   107653081.039 8        50.500                    20485690.924                                                                    83885501.805 8                                                                        50.500
G32  24289280.898   127641026.842 7        47.000                    24289276.038                                                                    99460530.700 7                                                                        47.000
R01  21297236.440   113845934.298 7        46.500                    21297237.920                    88546855.856 6                        39.500
R07  21799003.276   116691799.203 7        47.250                    21799000.836                    90760282.088 7                        43.750
R08  19801594.608   106036670.877 7        46.750                    19801592.088                    82472956.450 7                        46.750
R14  23119591.028   123240421.629 7        44.250                    23119591.208                    95853650.056 6                        40.000
R15  22265702.552   118981158.316 7        47.250                    22265701.252                    92540902.228 6                        41.750
R17  23663028.064   126625640.379 7        43.500                    23663025.924                    98486603.293 6                        39.250
R22  24026368.060   128254382.122 5        34.750
R23  19522851.652   104434115.649 7        47.500
R24  19825034.588   106013386.559 8        49.500                    19825032.728                    82454855.127 7                        46.500
> 2022 01 01  0  1  0.0000000  0 18        .000000000000
G08  20969053.982   110193124.798 8        49.250                    20969049.082                                                                    85864748.777 8                                                                        49.000
G10  20653650.764   108535682.804 8        51.250                    20653645.584                                                                    84573249.015 8                                                                        51.250
G15  24376994.738   128101992.978 7        45.000                    24376986.838                                                                    99819708.667 5                                                                        34.250
G16  24450442.098   128487922.241 7        43.500                    24450434.678                                                                   100120422.621 6                                                                        36.000
G18  24226848.120   127312960.193 7        43.000                    24226841.120                                                                    99204873.282 6                                                                        40.250
G21  23061244.648   121187676.384 8        48.000                    23061236.448                                                                    94431923.033 6                                                                        39.750
G23  21673116.996   113893021.871 8        48.750                    21673109.596                                                                    88747787.538 7                                                                        44.750
G27  20492385.424   107688231.527 8        50.000                    20492379.824                                                                    83912891.800 8                                                                        50.000
G32  24269424.520   127536680.869 7        47.000                    24269419.640                                                                    99379222.174 7                                                                        47.000
R01  21275639.640   113730487.054 7        46.250                    21275641.080                    88457063.593 6                        40.000
R07  21817186.156   116789133.701 7        47.250                    21817183.736                    90835986.715 7                        43.750
R08  19799111.628   106023374.536 7        46.250                    19799109.068                    82462614.876 7                        46.750
R14  23139186.748   123344877.563 7        43.000                    23139186.928                    95934893.505 6                        39.750
R15  22268158.132   118994280.442 7        47.500                    22268156.852                    92551108.351 7                        42.000
R17  23641144.864   126508539.218 7        43.250                    23641142.724                    98395524.659 6                        39.750
R22  24047863.420   128369125.778 5        35.500
R23  19529785.232   104471204.583 7        47.500
R24  19813857.428   105953617.270 8        48.750                    19813855.568                    82408367.908 7                        46.500
