     3.02           OBSERVATION DATA    M (MIXED)           RINEX VERSION / TYPE
HEADER CHANGED BY EPN CB ON 2022-03-11                      COMMENT
TO BE CONFORM WITH THE INFORMATION IN                       COMMENT
ftp://epncb.oma.be/pub/station/log/vlns.log                 COMMENT
                                                            COMMENT
TPP 3.5.8           VGTU GI             20220303 235929 UTC PGM / RUN BY / DATE
VLNS                                                        MARKER NAME
10801M001                                                   MARKER NUMBER
VGTU GI             VGTU GI                                 OBSERVER / AGENCY
496804              LEICA GRX1200+GNSS  V 9.20              REC # / TYPE / VERS
725555              LEIAR25.R4      NONE                    ANT # / TYPE
  3343600.9781  1580417.5602  5179337.1310                  APPROX POSITION XYZ
        0.0730        0.0000        0.0000                  ANTENNA: DELTA H/E/N
G   18 C1C L1C S1C C2P C2W C2S C2L C2X L2P L2W L2S L2L L2X  SYS / # / OBS TYPES
       S2P S2W S2S S2L S2X                                  SYS / # / OBS TYPES
R    9 C1C L1C S1C C2C C2P L2C L2P S2C S2P                  SYS / # / OBS TYPES
    30.000                                                  INTERVAL
     0                                                      RCV CLOCK OFFS APPL
    18                                                      LEAP SECONDS
    52                                                      # OF SATELLITES
  2022    03    04    00    00   00.0000000     GPS         TIME OF FIRST OBS
                                                            END OF HEADER
> 2022 03 04  0  0  0.0000000  0 22        .000000000000
G01  20832393.682   109474991.854 8        49.500                    20832389.822                                                                    85305196.437 8                                                                        49.500
G03  20342516.786   106900663.487 8        50.000                    20342512.006                                                                    83299201.382 8                                                                        50.000
G04  22448754.952   117969025.322 8        48.250                    22448749.312                                                                    91923884.833 7                                                                        43.750
G06  24827263.216   130468159.526 6        39.750                    24827259.316                                                                   101663482.505 6                                                                        37.250
G09  25493930.890   133971510.403 6        41.250                    25493926.950                                                                   104393373.997 6                                                                        41.750
G12  24938100.714   131050615.416 7        42.000                    24938094.154                                                                   102117358.264 6                                                                        39.750
G17  22637157.190   118959082.996 8        48.750                    22637149.810                                                                    92695365.319 7                                                                        44.250
G19  22621085.930   118874641.047 8        48.000                    22621076.410                                                                    92629565.853 7                                                                        44.250
G21  22981954.788   120771005.265 8        48.500                    22981947.428                                                                    94107267.205 7                                                                        42.750
G22  22622086.950   118879893.721 8        48.000                    22622079.610                                                                    92633668.221 6                                                                        40.500
G25  24977789.014   131259177.970 6        41.750                    24977784.474                                                                   102279837.232 6                                                                        41.750
G31  22153988.434   116420013.780 8        49.000                    22153980.814                                                                    90716866.768 8                                                                        49.000
G32  24045998.320   126362595.965 7        44.500                    24045992.840                                                                    98464353.498 7                                                                        44.500
R01  19592643.312   104733904.039 7        46.750                    19592644.332                    81459723.978 7                        42.500
R02  23736040.204   126660054.136 7        45.000                    23736040.864                    98513387.249 6                        39.750
R07  23599966.724   126332490.591 7        43.750                    23599965.064                    98258586.223 6                        40.500
R08  19950172.928   106832264.599 7        46.750                    19950170.508                    83091782.675 7                        47.000
R09  22347623.252   119335090.339 7        46.500                    22347621.152                    92816181.896 7                        43.500
R10  22976124.428   122475679.549 7        42.000
R17  21721839.376   116237973.201 7        47.250                    21721837.656                    90407313.143 7                        44.000
R23  21159412.480   113188605.748 7        47.000
R24  19646230.552   105057234.974 8        49.250                    19646229.132                    81711176.383 7                        46.750
> 2022 03 04  0  0 30.0000000  0 22        .000000000000
G01  20845343.762   109543044.902 8        49.750                    20845339.922                                                                    85358224.761 8                                                                        49.750
G03  20337150.306   106872462.405 8        50.250                    20337145.526                                                                    83277226.502 8                                                                        50.000
G04  22430735.792   117874333.918 8        48.250                    22430730.132                                                                    91850099.343 7                                                                        42.750
G06  24806655.956   130359867.799 6        40.250                    24806652.056                                                                   101579099.386 6                                                                        39.000
G09  25472172.532   133857169.337 7        44.750                    25472168.592                                                                   104304277.032 7                                                                        42.750
G12  24937941.434   131049778.291 7        42.250                    24937934.854                                                                   102116705.951 6                                                                        38.000
G17  22640666.030   118977521.998 8        49.000                    22640658.650                                                                    92709733.363 7                                                                        44.750
G19  22616532.670   118850713.402 8        48.250                    22616523.170                                                                    92610920.906 7                                                                        43.000
G21  22998363.868   120857235.468 8        48.500                    22998356.528                                                                    94174459.553 6                                                                        41.750
G22  22636866.630   118957561.387 8        48.250                    22636859.310                                                                    92694188.466 6                                                                        39.500
G25  24968842.134   131212163.283 6        39.250                    24968837.894                                                                   102243202.388 6                                                                        38.250
G31  22149935.594   116398716.062 8        49.000                    22149927.954                                                                    90700271.157 8                                                                        49.000
G32  24065020.240   126462557.068 7        46.750                    24065014.780                                                                    98542245.283 7                                                                        46.500
R01  19584410.432   104689894.716 7        46.750                    19584411.472                    81425494.519 7                        42.000
R02  23714527.264   126545257.158 7        46.500                    23714527.944                    98424100.725 6                        40.500
R07  23621710.904   126448888.809 7        44.500                    23621709.264                    98349118.126 6                        40.250
R08  19961848.828   106894788.506 7        46.250                    19961846.408                    83140412.372 7                        46.750
R09  22345040.712   119321299.668 7        47.500                    22345038.592                    92805455.819 7                        42.500
R10  22957269.308   122375171.858 7        44.000
R17  21702498.836   116134478.046 7        47.750                    21702497.116                    90326816.911 7                        43.500
R23  21180850.080   113303282.519 7        47.500
R24  19649027.552   105072191.792 8        49.500                    19649026.152                    81722809.450 7                        46.500
